{
  "generado": "2026-07-21T10:10:52.113Z",
  "umbral_m": 200,
  "resumen": {
    "total": 663,
    "ok": 137,
    "sospechoso": 96,
    "discrepante": 218,
    "no_encontrado": 212
  },
  "resultados": [
    {
      "indice": 0,
      "nombre": "Solymar",
      "direccion": "J56H+54G, Caraballeda 1165, La Guaira, Venezuela",
      "lat": 10.61044,
      "lng": -66.82217,
      "estado": "discrepante",
      "distancia_m": 3036,
      "osm": "Caraballeda, Parroquia Caraballeda, Municipio Vargas, Estado Vargas, 1165, Venezuela",
      "consulta": "Caraballeda 1165, La Guaira, Venezuela"
    },
    {
      "indice": 1,
      "nombre": "Edificio Punta Piedra",
      "direccion": "J437+PWV, Macuto 1164, La Guaira, Venezuela",
      "lat": 10.60436,
      "lng": -66.88521,
      "estado": "discrepante",
      "distancia_m": 809,
      "osm": "Macuto, Parroquia Macuto, Municipio Vargas, Estado Vargas, 1164, Venezuela",
      "consulta": "Macuto 1164, La Guaira, Venezuela"
    },
    {
      "indice": 2,
      "nombre": "RESIDENCIAS GRAÑAMAR",
      "direccion": "Av. Terepaima, Caraballeda 1165, La Guaira, Venezuela",
      "lat": 10.61126,
      "lng": -66.84329,
      "estado": "ok",
      "distancia_m": 86,
      "osm": "Avenida Terepaima, El Palmar Este, Caraballeda, Parroquia Caraballeda, Municipio Vargas, Estado Vargas, 1165, Venezuela",
      "consulta": "Av. Terepaima, Caraballeda 1165, La Guaira, Venezuela"
    },
    {
      "indice": 3,
      "nombre": "Residencias Marena",
      "direccion": "Vía Catia La Mar, Maiquetía 1162, La Guaira, Venezuela",
      "lat": 10.61087,
      "lng": -67.01258,
      "estado": "no_encontrado",
      "distancia_m": null,
      "osm": null,
      "consulta": null
    },
    {
      "indice": 4,
      "nombre": "Edificio Cambural cerca de la panadería almendrina playa grande la guaira",
      "direccion": "Playa Grande, Maiquetía 1162, La Guaira, Venezuela",
      "lat": 10.60919,
      "lng": -67.01518,
      "estado": "sospechoso",
      "distancia_m": 497,
      "osm": "Playa Club Marina Grande, Calle Real de Playa Verde, Playa Verde, Catia La Mar, Parroquia Urimare, Municipio Vargas, Estado Vargas, 1162, Venezuela",
      "consulta": "Playa Grande, Maiquetía 1162, La Guaira, Venezuela"
    },
    {
      "indice": 5,
      "nombre": "Qta. Mariangela",
      "direccion": "Calle 4, Catia La Mar 1162, playa grande. Circunvalación norteLa Guaira, Venezuela",
      "lat": 10.60505,
      "lng": -67.03363,
      "estado": "no_encontrado",
      "distancia_m": null,
      "osm": null,
      "consulta": null
    },
    {
      "indice": 6,
      "nombre": "Residencias Caribe",
      "direccion": "J592+G2Q, Caraballeda 1165, La Guaira, Venezuela",
      "lat": 10.61229,
      "lng": -66.83928,
      "estado": "sospechoso",
      "distancia_m": 271,
      "osm": "Residencias Caribe, Avenida Principal de Caribe, Urbanización Caribe, Caraballeda, Parroquia Caraballeda, Municipio Vargas, Estado Vargas, 1165, Venezuela",
      "consulta": "Residencias Caribe, Caraballeda 1165, La Guaira, Venezuela"
    },
    {
      "indice": 7,
      "nombre": "Residencias Orca",
      "direccion": "JX5R+RV6, Maiquetía 1162, La Guaira, Venezuela",
      "lat": 10.60954,
      "lng": -67.00787,
      "estado": "discrepante",
      "distancia_m": 1414,
      "osm": "Aeropuerto Internacional de Maiquetía Simón Bolívar, Avenida La Armada, Montesano, El Trébol, Catia La Mar, Parroquia Urimare, Municipio Vargas, Estado Vargas, 1162, Venezuela",
      "consulta": "Maiquetía 1162, La Guaira, Venezuela"
    },
    {
      "indice": 8,
      "nombre": "Hotel Aeropuerto",
      "direccion": "Calle 3, Catia La Mar 1162, La Guaira, Venezuela",
      "lat": 10.60794,
      "lng": -67.03252,
      "estado": "ok",
      "distancia_m": 18,
      "osm": "Hotel Aeropuerto, Calle 3 de La Atlántida, Las Colinas, Parroquia Catia La Mar, Municipio Vargas, Estado Vargas, 1162, Venezuela",
      "consulta": "Hotel Aeropuerto, Calle 3, Catia La Mar 1162, La Guaira, Venezuela"
    },
    {
      "indice": 9,
      "nombre": "Aeropuerto Internacional Simón Bolívar",
      "direccion": "Aeropuerto Internacional Simón Bolívar, Maiquetía 1162, La Guaira, Venezuela",
      "lat": 10.597882,
      "lng": -67.005433,
      "estado": "no_encontrado",
      "distancia_m": null,
      "osm": null,
      "consulta": null
    },
    {
      "indice": 10,
      "nombre": "Aguja Azul Maiquetía",
      "direccion": "10.611169, -67.017788, Maiquetía 1162, La Guaira, Venezuela",
      "lat": 10.61114,
      "lng": -67.01779,
      "estado": "no_encontrado",
      "distancia_m": null,
      "osm": null,
      "consulta": null
    },
    {
      "indice": 11,
      "nombre": "CARABALLEDA SOL",
      "direccion": "Calle Bajada El Caribe, Caraballeda 1165, La Guaira, Venezuela",
      "lat": 10.6119,
      "lng": -66.84675,
      "estado": "no_encontrado",
      "distancia_m": null,
      "osm": null,
      "consulta": null
    },
    {
      "indice": 12,
      "nombre": "Edificio El Jurel",
      "direccion": "Playa Grande, Maiquetía 1162, La Guaira, Venezuela",
      "lat": 10.61039,
      "lng": -67.00838,
      "estado": "discrepante",
      "distancia_m": 673,
      "osm": "Playa Club Marina Grande, Calle Real de Playa Verde, Playa Verde, Catia La Mar, Parroquia Urimare, Municipio Vargas, Estado Vargas, 1162, Venezuela",
      "consulta": "Playa Grande, Maiquetía 1162, La Guaira, Venezuela"
    },
    {
      "indice": 13,
      "nombre": "Residencias Capri",
      "direccion": "Playa Grande, Maiquetía 1162, La Guaira, Venezuela",
      "lat": 10.61102,
      "lng": -67.0166,
      "estado": "sospechoso",
      "distancia_m": 415,
      "osm": "Playa Club Marina Grande, Calle Real de Playa Verde, Playa Verde, Catia La Mar, Parroquia Urimare, Municipio Vargas, Estado Vargas, 1162, Venezuela",
      "consulta": "Playa Grande, Maiquetía 1162, La Guaira, Venezuela"
    },
    {
      "indice": 14,
      "nombre": "Edificio Marú",
      "direccion": "Av. La Atlántida, Catia La Mar, calle 11, La Guaira, Venezuela",
      "lat": 10.60371,
      "lng": -67.02965,
      "estado": "no_encontrado",
      "distancia_m": null,
      "osm": null,
      "consulta": null
    },
    {
      "indice": 15,
      "nombre": "Camuri grande Edo la Guaira",
      "direccion": "La Guaira, Venezuela",
      "lat": 10.60248,
      "lng": -66.93134,
      "estado": "sospechoso",
      "distancia_m": 328,
      "osm": "La Guaira, Parroquia La Guaira, Municipio Vargas, Estado Vargas, 1160, Venezuela",
      "consulta": "La Guaira, Venezuela"
    },
    {
      "indice": 16,
      "nombre": "Residencias Mansión Club Caraballeda",
      "direccion": "Av. José María España, Caraballeda 1165, La Guaira, Venezuela",
      "lat": 10.61239,
      "lng": -66.83434,
      "estado": "discrepante",
      "distancia_m": 1665,
      "osm": "Avenida La Playa, Los Corales, Caraballeda, Parroquia Caraballeda, Municipio Vargas, Estado Vargas, 1165, Venezuela",
      "consulta": "Av. José María España, Caraballeda 1165, La Guaira, Venezuela"
    },
    {
      "indice": 17,
      "nombre": "Residencias CELTAMAR I",
      "direccion": "J592+82Q, Caraballeda, La Guaira, Venezuela",
      "lat": 10.61212,
      "lng": -66.84989,
      "estado": "ok",
      "distancia_m": 80,
      "osm": "Caraballeda, Parroquia Caraballeda, Municipio Vargas, Estado Vargas, 1165, Venezuela",
      "consulta": "Caraballeda, La Guaira, Venezuela"
    },
    {
      "indice": 18,
      "nombre": "Residencia Costa Brava",
      "direccion": "Avenida Guaicaipuro, Caraballeda 1165, La Guaira, Venezuela",
      "lat": 10.6111,
      "lng": -66.84572,
      "estado": "sospechoso",
      "distancia_m": 344,
      "osm": "Avenida Guaicaipuro, Urbanización Caribe, Caraballeda, Parroquia Caraballeda, Municipio Vargas, Estado Vargas, 1165, Venezuela",
      "consulta": "Avenida Guaicaipuro, Caraballeda 1165, La Guaira, Venezuela"
    },
    {
      "indice": 19,
      "nombre": "Edificio Las Aves",
      "direccion": "Calle 1, Catia La Mar 1162, La Guaira, Venezuela",
      "lat": 10.60448,
      "lng": -67.0361,
      "estado": "ok",
      "distancia_m": 104,
      "osm": "Calle 1, La Zorra, Las Colinas, Parroquia Catia La Mar, Municipio Vargas, Estado Vargas, 1162, Venezuela",
      "consulta": "Calle 1, Catia La Mar 1162, La Guaira, Venezuela"
    },
    {
      "indice": 20,
      "nombre": "C.C Costa del Sol",
      "direccion": "J593+7J, Caraballeda, La Guaira, Venezuela",
      "lat": 10.61108,
      "lng": -66.84594,
      "estado": "discrepante",
      "distancia_m": 805,
      "osm": "Mercantil, Avenida La Costanera, Los Corales, Caraballeda, Parroquia Caraballeda, Municipio Vargas, Estado Vargas, 1165, Venezuela",
      "consulta": "C.C Costa del Sol, Caraballeda, La Guaira, Venezuela"
    },
    {
      "indice": 21,
      "nombre": "Malibu Suite",
      "direccion": "Tanaguarena, Caraballeda 1165, La Guaira, Venezuela",
      "lat": 10.61193,
      "lng": -66.83805,
      "estado": "discrepante",
      "distancia_m": 1225,
      "osm": "Tanaguarena, Caraballeda, Parroquia Caraballeda, Municipio Vargas, Estado Vargas, 1165, Venezuela",
      "consulta": "Tanaguarena, Caraballeda 1165, La Guaira, Venezuela"
    },
    {
      "indice": 22,
      "nombre": "Los Tamarindos II",
      "direccion": "Caraballeda, La Guaira, Venezuela",
      "lat": 10.61117,
      "lng": -66.84718,
      "estado": "discrepante",
      "distancia_m": 702,
      "osm": "Los Tamarindos II, Avenida Guaicaipuro, Urbanización Caribe, Caraballeda, Parroquia Caraballeda, Municipio Vargas, Estado Vargas, 1165, Venezuela",
      "consulta": "Los Tamarindos II, Caraballeda, La Guaira, Venezuela"
    },
    {
      "indice": 23,
      "nombre": "Rocapark",
      "direccion": "J584+J29, Caraballeda, La Guaira, Venezuela",
      "lat": 10.61245,
      "lng": -66.84489,
      "estado": "discrepante",
      "distancia_m": 540,
      "osm": "Caraballeda, Parroquia Caraballeda, Municipio Vargas, Estado Vargas, 1165, Venezuela",
      "consulta": "Caraballeda, La Guaira, Venezuela"
    },
    {
      "indice": 24,
      "nombre": "Edificio Dist. Rosanday",
      "direccion": "J46P+P73, Av. José María España, Caraballeda 1165, La Guaira, Venezuela",
      "lat": 10.61176,
      "lng": -66.86431,
      "estado": "discrepante",
      "distancia_m": 1990,
      "osm": "Avenida La Playa, Los Corales, Caraballeda, Parroquia Caraballeda, Municipio Vargas, Estado Vargas, 1165, Venezuela",
      "consulta": "Av. José María España, Caraballeda 1165, La Guaira, Venezuela"
    },
    {
      "indice": 25,
      "nombre": "Residencia Ilona",
      "direccion": "Av. José María España, Caraballeda, La Guaira, Venezuela",
      "lat": 10.61295,
      "lng": -66.83749,
      "estado": "discrepante",
      "distancia_m": 2523,
      "osm": "Avenida La Playa, El Palmar Oeste, Caraballeda, Parroquia Caraballeda, Municipio Vargas, Estado Vargas, 1165, Venezuela",
      "consulta": "Av. José María España, Caraballeda, La Guaira, Venezuela"
    },
    {
      "indice": 26,
      "nombre": "Res. Mansión del Mar",
      "direccion": "J579+55R, Caraballeda 1165, La Guaira, Venezuela",
      "lat": 10.61268,
      "lng": -66.83212,
      "estado": "discrepante",
      "distancia_m": 1936,
      "osm": "Caraballeda, Parroquia Caraballeda, Municipio Vargas, Estado Vargas, 1165, Venezuela",
      "consulta": "Caraballeda 1165, La Guaira, Venezuela"
    },
    {
      "indice": 27,
      "nombre": "Residencia Avilamar",
      "direccion": "C. Los Apamates, Caraballeda 1165, La Guaira, Venezuela",
      "lat": 10.61166,
      "lng": -66.82746,
      "estado": "ok",
      "distancia_m": 15,
      "osm": "Calle Los Apamates, Tanaguarena, Caraballeda, Parroquia Caraballeda, Municipio Vargas, Estado Vargas, 1165, Venezuela",
      "consulta": "C. Los Apamates, Caraballeda 1165, La Guaira, Venezuela"
    },
    {
      "indice": 28,
      "nombre": "Residencias Vallarta",
      "direccion": "JX5J+Q99, Avenida Nte., Maiquetía 1162, La Guaira, Venezuela",
      "lat": 10.60942,
      "lng": -67.01902,
      "estado": "no_encontrado",
      "distancia_m": null,
      "osm": null,
      "consulta": null
    },
    {
      "indice": 29,
      "nombre": "Residencias Cumanagoto",
      "direccion": "Playa Grande, Maiquetía 1162, La Guaira, Venezuela",
      "lat": 10.61093,
      "lng": -67.01023,
      "estado": "sospechoso",
      "distancia_m": 471,
      "osm": "Playa Club Marina Grande, Calle Real de Playa Verde, Playa Verde, Catia La Mar, Parroquia Urimare, Municipio Vargas, Estado Vargas, 1162, Venezuela",
      "consulta": "Playa Grande, Maiquetía 1162, La Guaira, Venezuela"
    },
    {
      "indice": 30,
      "nombre": "Edificio pelicano",
      "direccion": "Av Principal de Playa Grande, Catia La Mar 1162, La Guaira, Venezuela",
      "lat": 10.60405,
      "lng": -67.02728,
      "estado": "discrepante",
      "distancia_m": 640,
      "osm": "Avenida Principal de Playa Grande, Ciudad Chávez, Playa Grande, Catia La Mar, Parroquia Urimare, Municipio Vargas, Estado Vargas, 1162, Venezuela",
      "consulta": "Av Principal de Playa Grande, Catia La Mar 1162, La Guaira, Venezuela"
    },
    {
      "indice": 31,
      "nombre": "Comercial la Goleta ( Celicor )",
      "direccion": "Avenida Principal de la costanera con calle 4, los corales caraballeda",
      "lat": 10.61168,
      "lng": -66.85912,
      "estado": "no_encontrado",
      "distancia_m": null,
      "osm": null,
      "consulta": null
    },
    {
      "indice": 32,
      "nombre": "Residencias Auro",
      "direccion": "J592+J7M, Av. José María España, Caraballeda 1165, La Guaira, Venezuela",
      "lat": 10.61143,
      "lng": -66.84932,
      "estado": "discrepante",
      "distancia_m": 807,
      "osm": "Residencias Auro, Avenida La Playa, Los Corales, Caraballeda, Parroquia Caraballeda, Municipio Vargas, Estado Vargas, 1165, Venezuela",
      "consulta": "Residencias Auro, Av. José María España, Caraballeda 1165, La Guaira, Venezuela"
    },
    {
      "indice": 33,
      "nombre": "Tanamar",
      "direccion": "1165 Av La Playa, Caraballeda 1165, La Guaira, Venezuela",
      "lat": 10.61205,
      "lng": -66.8258,
      "estado": "discrepante",
      "distancia_m": 515,
      "osm": "Avenida La Playa, Tanaguarena, Caraballeda, Parroquia Caraballeda, Municipio Vargas, Estado Vargas, 1165, Venezuela",
      "consulta": "1165 Av La Playa, Caraballeda 1165, La Guaira, Venezuela"
    },
    {
      "indice": 34,
      "nombre": "Pez Vela",
      "direccion": "Playa Grande, Maiquetía 1162, La Guaira, Venezuela",
      "lat": 10.61163,
      "lng": -67.01745,
      "estado": "sospechoso",
      "distancia_m": 456,
      "osm": "Playa Club Marina Grande, Calle Real de Playa Verde, Playa Verde, Catia La Mar, Parroquia Urimare, Municipio Vargas, Estado Vargas, 1162, Venezuela",
      "consulta": "Playa Grande, Maiquetía 1162, La Guaira, Venezuela"
    },
    {
      "indice": 35,
      "nombre": "Edif Malecon",
      "direccion": "Calle 5, Maiquetía 1162, La Guaira, Venezuela",
      "lat": 10.61062,
      "lng": -67.01771,
      "estado": "discrepante",
      "distancia_m": 6528,
      "osm": "Maiquetía, Parroquia Maiquetía, Municipio Vargas, Estado Vargas, 1161, Venezuela",
      "consulta": "Calle 5, Maiquetía 1162, La Guaira, Venezuela"
    },
    {
      "indice": 36,
      "nombre": "Residencias Mediterranee",
      "direccion": "JX5C+74V, Calle 4, Maiquetía 1162, La Guaira, Venezuela",
      "lat": 10.60823,
      "lng": -67.02972,
      "estado": "discrepante",
      "distancia_m": 7763,
      "osm": "Maiquetía, Parroquia Maiquetía, Municipio Vargas, Estado Vargas, 1161, Venezuela",
      "consulta": "Calle 4, Maiquetía 1162, La Guaira, Venezuela"
    },
    {
      "indice": 37,
      "nombre": "Residencias Belair",
      "direccion": "Calle Charaima c/c Los Apamates, Urb. Tanaguarenas",
      "lat": 10.60248,
      "lng": -66.93134,
      "estado": "no_encontrado",
      "distancia_m": null,
      "osm": null,
      "consulta": null
    },
    {
      "indice": 38,
      "nombre": "Escuela Naval",
      "direccion": "C. Alferez de Fragata Don Vicente Parrado, Catia La Mar 1162, La Guaira, Venezuela",
      "lat": 10.59138,
      "lng": -67.04747,
      "estado": "no_encontrado",
      "distancia_m": null,
      "osm": null,
      "consulta": null
    },
    {
      "indice": 39,
      "nombre": "Edificio Álamo",
      "direccion": "Av. Álamo, Macuto 1164, La Guaira, Venezuela",
      "lat": 10.6026,
      "lng": -66.9046,
      "estado": "sospechoso",
      "distancia_m": 294,
      "osm": "Avenida Álamo, Urbanización Álamo, Macuto, Parroquia Macuto, Municipio Vargas, Estado Vargas, 1164, Venezuela",
      "consulta": "Av. Álamo, Macuto 1164, La Guaira, Venezuela"
    },
    {
      "indice": 40,
      "nombre": "Mediterraneo",
      "direccion": "Caribe, Caraballeda 1165, La Guaira, Venezuela",
      "lat": 10.61022,
      "lng": -66.84095,
      "estado": "sospechoso",
      "distancia_m": 240,
      "osm": "Residencias Mediterraneo, Avenida Granada, Urbanización Caribe, Caraballeda, Parroquia Caraballeda, Municipio Vargas, Estado Vargas, 1165, Venezuela",
      "consulta": "Mediterraneo, Caribe, Caraballeda 1165, La Guaira, Venezuela"
    },
    {
      "indice": 41,
      "nombre": "Edificio Rompemar II",
      "direccion": "J594+756 Edificio Rompemar II, Caraballeda 1165, La Guaira, Venezuela",
      "lat": 10.61131,
      "lng": -66.84459,
      "estado": "discrepante",
      "distancia_m": 780,
      "osm": "Edificio Rompemar II, Urbanización Caribe, Caraballeda, Parroquia Caraballeda, Municipio Vargas, Estado Vargas, Venezuela",
      "consulta": "Edificio Rompemar II, Caraballeda 1165, La Guaira, Venezuela"
    },
    {
      "indice": 42,
      "nombre": "Residencias Karina",
      "direccion": "J565+XF7, Av. Granada, Caraballeda 1165, La Guaira, Venezuela",
      "lat": 10.61176,
      "lng": -66.8402,
      "estado": "ok",
      "distancia_m": 192,
      "osm": "Residencias Karina, Avenida Granada, Urbanización Caribe, Caraballeda, Parroquia Caraballeda, Municipio Vargas, Estado Vargas, 1030, Venezuela",
      "consulta": "Residencias Karina, Av. Granada, Caraballeda 1165, La Guaira, Venezuela"
    },
    {
      "indice": 43,
      "nombre": "Residencia relax Vista Mar",
      "direccion": "JX6Q+3V7, Maiquetía 1162, La Guaira, Venezuela",
      "lat": 10.61041,
      "lng": -67.01247,
      "estado": "discrepante",
      "distancia_m": 1906,
      "osm": "Aeropuerto Internacional de Maiquetía Simón Bolívar, Avenida La Armada, Montesano, El Trébol, Catia La Mar, Parroquia Urimare, Municipio Vargas, Estado Vargas, 1162, Venezuela",
      "consulta": "Maiquetía 1162, La Guaira, Venezuela"
    },
    {
      "indice": 44,
      "nombre": "Aguja Azul",
      "direccion": "Frente a las canchas deportivas, Residencias Aguja Azul, C. Coromoto, Naiguatá 1166, La Guaira, Venezuela",
      "lat": 10.61126,
      "lng": -66.74211,
      "estado": "no_encontrado",
      "distancia_m": null,
      "osm": null,
      "consulta": null
    },
    {
      "indice": 45,
      "nombre": "Residencias Palma Real -La Guaira",
      "direccion": "CALLE LA PLAYA, RESIDENCIAS PALMA REAL, ZONA CARIBE, PARROQUIA CARABALLEDA, FRENTE AL ANTIGUO HOTEL MELIÁ, LA GUAIRA.",
      "lat": 10.61107,
      "lng": -66.83685,
      "estado": "no_encontrado",
      "distancia_m": null,
      "osm": null,
      "consulta": null
    },
    {
      "indice": 46,
      "nombre": "Residencias Marycielo",
      "direccion": "J574+288, Caraballeda 1165, La Guaira, Venezuela",
      "lat": 10.61244,
      "lng": -66.84384,
      "estado": "discrepante",
      "distancia_m": 655,
      "osm": "Caraballeda, Parroquia Caraballeda, Municipio Vargas, Estado Vargas, 1165, Venezuela",
      "consulta": "Caraballeda 1165, La Guaira, Venezuela"
    },
    {
      "indice": 47,
      "nombre": "Residencia Botánico",
      "direccion": "Jardín botánico",
      "lat": 10.61085,
      "lng": -66.82662,
      "estado": "discrepante",
      "distancia_m": 534749,
      "osm": "Jardín Botánico, Caujarito, Parroquia Marcial Hernández, Municipio San Francisco, Estado Zulia, Venezuela",
      "consulta": "Jardín botánico"
    },
    {
      "indice": 48,
      "nombre": "Residencia Gradisca",
      "direccion": "Av. José María España, Macuto, La Guaira, Venezuela",
      "lat": 10.60992,
      "lng": -66.881,
      "estado": "discrepante",
      "distancia_m": 979,
      "osm": "Avenida La Playa, Camuri Chico, Macuto, Parroquia Macuto, Municipio Vargas, Estado Vargas, 1164, Venezuela",
      "consulta": "Av. José María España, Macuto, La Guaira, Venezuela"
    },
    {
      "indice": 49,
      "nombre": "Marianamar",
      "direccion": "J586+CF7, Caraballeda 1165, La Guaira, Venezuela",
      "lat": 10.61288,
      "lng": -66.83882,
      "estado": "discrepante",
      "distancia_m": 1203,
      "osm": "Caraballeda, Parroquia Caraballeda, Municipio Vargas, Estado Vargas, 1165, Venezuela",
      "consulta": "Caraballeda 1165, La Guaira, Venezuela"
    },
    {
      "indice": 50,
      "nombre": "Residencias Ibiza",
      "direccion": "J56G+35V Urbanizacion Tanaguarena, Av La Playa, Caraballeda 1165, La Guaira, Venezuela",
      "lat": 10.61109,
      "lng": -66.82117,
      "estado": "ok",
      "distancia_m": 65,
      "osm": "Residencias Ibiza, Avenida La Playa, Tanaguarena, Caraballeda, Parroquia Caraballeda, Municipio Vargas, Estado Vargas, 1165, Venezuela",
      "consulta": "Residencias Ibiza, Av La Playa, Caraballeda 1165, La Guaira, Venezuela"
    },
    {
      "indice": 51,
      "nombre": "Porto Fino Beach",
      "direccion": "Tanaguarena, Caraballeda 1165, La Guaira, Venezuela",
      "lat": 10.61218,
      "lng": -66.82286,
      "estado": "sospechoso",
      "distancia_m": 438,
      "osm": "Tanaguarena, Caraballeda, Parroquia Caraballeda, Municipio Vargas, Estado Vargas, 1165, Venezuela",
      "consulta": "Tanaguarena, Caraballeda 1165, La Guaira, Venezuela"
    },
    {
      "indice": 52,
      "nombre": "Residencias Puerto Coral",
      "direccion": "J437+PWV, Macuto 1164, La Guaira, Venezuela",
      "lat": 10.61119,
      "lng": -66.88423,
      "estado": "ok",
      "distancia_m": 4,
      "osm": "Residencias Puerto Coral, Calle 1, El Teleférico, Macuto, Parroquia Macuto, Municipio Vargas, Estado Vargas, 1164, Venezuela",
      "consulta": "Residencias Puerto Coral, Macuto 1164, La Guaira, Venezuela"
    },
    {
      "indice": 53,
      "nombre": "edificio Mónaco naiguata",
      "direccion": "Av. José María Vargas, Naiguatá 1166, La Guaira, Venezuela",
      "lat": 10.61295,
      "lng": -66.73731,
      "estado": "discrepante",
      "distancia_m": 1109,
      "osm": "Avenida José María Vargas, La Planta, Naiguatá, Parroquia Naiguatá, Municipio Vargas, Estado Vargas, 1166, Venezuela",
      "consulta": "Av. José María Vargas, Naiguatá 1166, La Guaira, Venezuela"
    },
    {
      "indice": 54,
      "nombre": "La Joya",
      "direccion": "Caraballeda, La Guaira, Venezuela",
      "lat": 10.61206,
      "lng": -66.84299,
      "estado": "sospechoso",
      "distancia_m": 478,
      "osm": "La Joya, Automac, Urbanización Caribe, Caraballeda, Parroquia Caraballeda, Municipio Vargas, Estado Vargas, 1165, Venezuela",
      "consulta": "La Joya, Caraballeda, La Guaira, Venezuela"
    },
    {
      "indice": 55,
      "nombre": "Naiguata",
      "direccion": "La Guaira, Venezuela",
      "lat": 10.60248,
      "lng": -66.93134,
      "estado": "discrepante",
      "distancia_m": 21090,
      "osm": "Naiguatá, Parroquia Naiguatá, Municipio Vargas, Estado Vargas, 1166, Venezuela",
      "consulta": "Naiguata, La Guaira, Venezuela"
    },
    {
      "indice": 56,
      "nombre": "Edificio costa brava los corales",
      "direccion": "Los Corales, Caraballeda 1165, La Guaira, Venezuela",
      "lat": 10.61156,
      "lng": -66.85686,
      "estado": "sospechoso",
      "distancia_m": 220,
      "osm": "Los Corales, Caraballeda, Parroquia Caraballeda, Municipio Vargas, Estado Vargas, 1165, Venezuela",
      "consulta": "Los Corales, Caraballeda 1165, La Guaira, Venezuela"
    },
    {
      "indice": 57,
      "nombre": "Res Punta Brisas",
      "direccion": "Calle san Andrés Res punta Brisas",
      "lat": 10.61064,
      "lng": -66.88647,
      "estado": "no_encontrado",
      "distancia_m": null,
      "osm": null,
      "consulta": null
    },
    {
      "indice": 58,
      "nombre": "Residencias Coral Park",
      "direccion": "Residencias Coral Beach, Av. La Costanera, Caraballeda 1165, La Guaira, Venezuela",
      "lat": 10.61176,
      "lng": -66.85476,
      "estado": "no_encontrado",
      "distancia_m": null,
      "osm": null,
      "consulta": null
    },
    {
      "indice": 59,
      "nombre": "Edificio Las Palmas o punta piedra (ver video)",
      "direccion": "Avenida José María España, Macuto 1164, La Guaira, Venezuela",
      "lat": 10.60958,
      "lng": -66.87573,
      "estado": "ok",
      "distancia_m": 109,
      "osm": "Avenida La Playa, Camuri Chico, Macuto, Parroquia Macuto, Municipio Vargas, Estado Vargas, 1164, Venezuela",
      "consulta": "Avenida José María España, Macuto 1164, La Guaira, Venezuela"
    },
    {
      "indice": 60,
      "nombre": "Victor",
      "direccion": "7076 Coronado Way",
      "lat": 10.61169,
      "lng": -66.84248,
      "estado": "no_encontrado",
      "distancia_m": null,
      "osm": null,
      "consulta": null
    },
    {
      "indice": 61,
      "nombre": "Residencias Playate “Playa T”",
      "direccion": "JX5P+V4V, Maiquetía, La Guaira, Venezuela",
      "lat": 10.60979,
      "lng": -67.01504,
      "estado": "discrepante",
      "distancia_m": 2139,
      "osm": "Aeropuerto Internacional de Maiquetía Simón Bolívar, Avenida La Armada, Sotavento II, Santa Eduvigis, Catia La Mar, Parroquia Urimare, Municipio Vargas, Estado Vargas, 1162, Venezuela",
      "consulta": "Maiquetía, La Guaira, Venezuela"
    },
    {
      "indice": 62,
      "nombre": "Residencias Perlamar",
      "direccion": "Caribe, Caraballeda 1165, La Guaira, Venezuela",
      "lat": 10.61117,
      "lng": -66.84174,
      "estado": "sospechoso",
      "distancia_m": 382,
      "osm": "Urbanización Caribe, Caraballeda, Parroquia Caraballeda, Municipio Vargas, Estado Vargas, 1165, Venezuela",
      "consulta": "Caribe, Caraballeda 1165, La Guaira, Venezuela"
    },
    {
      "indice": 63,
      "nombre": "Restaurar rompeolas",
      "direccion": "Av Principal de Playa Grande, Catia La Mar 1162, La Guaira, Venezuela rompeolas",
      "lat": 10.60894,
      "lng": -67.02736,
      "estado": "no_encontrado",
      "distancia_m": null,
      "osm": null,
      "consulta": null
    },
    {
      "indice": 64,
      "nombre": "Residencia oasis beach",
      "direccion": "JX6Q+2M8, Maiquetía 1162, La Guaira, Venezuela",
      "lat": 10.61018,
      "lng": -67.01141,
      "estado": "discrepante",
      "distancia_m": 1790,
      "osm": "Aeropuerto Internacional de Maiquetía Simón Bolívar, Avenida La Armada, Montesano, El Trébol, Catia La Mar, Parroquia Urimare, Municipio Vargas, Estado Vargas, 1162, Venezuela",
      "consulta": "Maiquetía 1162, La Guaira, Venezuela"
    },
    {
      "indice": 65,
      "nombre": "Residencia Bellevue",
      "direccion": "Caraballeda, 1165, La Guaira, Venezuela",
      "lat": 10.6149693,
      "lng": -66.8484344,
      "estado": "sospechoso",
      "distancia_m": 280,
      "osm": "Caraballeda, Parroquia Caraballeda, Municipio Vargas, Estado Vargas, 1165, Venezuela",
      "consulta": "Caraballeda, 1165, La Guaira, Venezuela"
    },
    {
      "indice": 66,
      "nombre": "caraballeda beach",
      "direccion": "1165 Av La Playa, Caraballeda 1165, La Guaira, Venezuela",
      "lat": 10.61236,
      "lng": -66.82346,
      "estado": "discrepante",
      "distancia_m": 768,
      "osm": "Avenida La Playa, Tanaguarena, Caraballeda, Parroquia Caraballeda, Municipio Vargas, Estado Vargas, 1165, Venezuela",
      "consulta": "1165 Av La Playa, Caraballeda 1165, La Guaira, Venezuela"
    },
    {
      "indice": 67,
      "nombre": "Nautilus",
      "direccion": "Av Principal de Playa Grande, Catia La Mar 1162, La Guaira, Venezuela",
      "lat": 10.61305,
      "lng": -67.02221,
      "estado": "discrepante",
      "distancia_m": 534,
      "osm": "Avenida Principal de Playa Grande, Ciudad Chávez, Playa Grande, Catia La Mar, Parroquia Urimare, Municipio Vargas, Estado Vargas, 1162, Venezuela",
      "consulta": "Av Principal de Playa Grande, Catia La Mar 1162, La Guaira, Venezuela"
    },
    {
      "indice": 68,
      "nombre": "Residencias Bravamar",
      "direccion": "Av. Circunvalacion, Caraballeda 1165, La Guaira, Venezuela",
      "lat": 10.61152,
      "lng": -66.84603,
      "estado": "discrepante",
      "distancia_m": 520,
      "osm": "Avenida Circunvalación, El Palmar Este, Caraballeda, Parroquia Caraballeda, Municipio Vargas, Estado Vargas, 1165, Venezuela",
      "consulta": "Av. Circunvalacion, Caraballeda 1165, La Guaira, Venezuela"
    },
    {
      "indice": 69,
      "nombre": "Residencia Camuri Park",
      "direccion": "residencia Camuri Park, Naiguatá 1166, La Guaira, Venezuela",
      "lat": 10.61194,
      "lng": -66.71248,
      "estado": "discrepante",
      "distancia_m": 1076,
      "osm": "Residencia Camuri Park, Avenida Principal de Naiguatá, Camurí Grande, Parroquia Naiguatá, Municipio Vargas, Estado Vargas, 1166, Venezuela",
      "consulta": "residencia Camuri Park, Naiguatá 1166, La Guaira, Venezuela"
    },
    {
      "indice": 70,
      "nombre": "Residencia Carmela Mar",
      "direccion": "J55F+WPG, Caraballeda 1165, La Guaira, Venezuela",
      "lat": 10.60981,
      "lng": -66.82566,
      "estado": "discrepante",
      "distancia_m": 2664,
      "osm": "Caraballeda, Parroquia Caraballeda, Municipio Vargas, Estado Vargas, 1165, Venezuela",
      "consulta": "Caraballeda 1165, La Guaira, Venezuela"
    },
    {
      "indice": 71,
      "nombre": "La Estrella",
      "direccion": "Avenida La Playa, Macuto 1164, La Guaira, Venezuela",
      "lat": 10.60526,
      "lng": -66.90036,
      "estado": "ok",
      "distancia_m": 177,
      "osm": "Avenida La Playa, Urbanización Álamo, Macuto, Parroquia Macuto, Municipio Vargas, Estado Vargas, 1164, Venezuela",
      "consulta": "Avenida La Playa, Macuto 1164, La Guaira, Venezuela"
    },
    {
      "indice": 72,
      "nombre": "Residencias Aquarium",
      "direccion": "Av. La Atlántida, Catia La Mar 1162, La Guaira, Venezuela",
      "lat": 10.60933,
      "lng": -67.0314,
      "estado": "discrepante",
      "distancia_m": 727,
      "osm": "Edificio Banco de Venezuela, Avenida La Atlantida, Las Angustias, La Atlántida, Catia La Mar, Parroquia Catia La Mar, Municipio Vargas, Estado Vargas, 1162, Venezuela",
      "consulta": "Av. La Atlántida, Catia La Mar 1162, La Guaira, Venezuela"
    },
    {
      "indice": 73,
      "nombre": "Residencias Airemar",
      "direccion": "J56F+W47, Caraballeda 1165, La Guaira, Venezuela",
      "lat": 10.60703,
      "lng": -66.82618,
      "estado": "discrepante",
      "distancia_m": 2664,
      "osm": "Caraballeda, Parroquia Caraballeda, Municipio Vargas, Estado Vargas, 1165, Venezuela",
      "consulta": "Caraballeda 1165, La Guaira, Venezuela"
    },
    {
      "indice": 74,
      "nombre": "Bloque 3 la Paez",
      "direccion": "Av. La Páez, Catia La Mar 1162, La Guaira, Venezuela",
      "lat": 10.60004,
      "lng": -67.02473,
      "estado": "sospechoso",
      "distancia_m": 475,
      "osm": "Avenida Tacagua, Las Angustias, La Páez, Parroquia Catia La Mar, Municipio Vargas, Estado Vargas, 1162, Venezuela",
      "consulta": "Av. La Páez, Catia La Mar 1162, La Guaira, Venezuela"
    },
    {
      "indice": 75,
      "nombre": "Edificio Caribe detras de las 15 letras",
      "direccion": "J577+G33, paso 3, Caraballeda 1165, La Guaira, Venezuela",
      "lat": 10.61125,
      "lng": -66.83732,
      "estado": "no_encontrado",
      "distancia_m": null,
      "osm": null,
      "consulta": null
    },
    {
      "indice": 76,
      "nombre": "Maria Andreina Castillo en Velo horizonte",
      "direccion": "Catia La Mar, La Guaira, Venezuela",
      "lat": 10.60064,
      "lng": -67.03923,
      "estado": "discrepante",
      "distancia_m": 2709,
      "osm": "Catia La Mar, Parroquia Urimare, Municipio Vargas, Estado Vargas, 1162, Venezuela",
      "consulta": "Catia La Mar, La Guaira, Venezuela"
    },
    {
      "indice": 77,
      "nombre": "Tanaguarena",
      "direccion": "Tanaguarena, Caraballeda 1165, La Guaira, Venezuela",
      "lat": 10.61027,
      "lng": -66.82458,
      "estado": "discrepante",
      "distancia_m": 853,
      "osm": "Playa Club Tanaguarena 2, Avenida La Playa, Tanaguarena, Caraballeda, Parroquia Caraballeda, Municipio Vargas, Estado Vargas, 1165, Venezuela",
      "consulta": "Tanaguarena, Tanaguarena, Caraballeda 1165, La Guaira, Venezuela"
    },
    {
      "indice": 78,
      "nombre": "Residencia la Trinidad",
      "direccion": "Calle 9 playa grande Edo la Guaira",
      "lat": 10.61045,
      "lng": -67.01906,
      "estado": "no_encontrado",
      "distancia_m": null,
      "osm": null,
      "consulta": null
    },
    {
      "indice": 79,
      "nombre": "Residencias Club Bahía Mar",
      "direccion": "J49W+6GR, Caraballeda 1165, La Guaira, Venezuela",
      "lat": 10.61189,
      "lng": -66.85372,
      "estado": "sospechoso",
      "distancia_m": 440,
      "osm": "Caraballeda, Parroquia Caraballeda, Municipio Vargas, Estado Vargas, 1165, Venezuela",
      "consulta": "Caraballeda 1165, La Guaira, Venezuela"
    },
    {
      "indice": 80,
      "nombre": "Supermercado El Rey de Carayaca",
      "direccion": "Calle principal de, GVMM+85Q, C. Real, Carayaca 1167, La Guaira, Venezuela",
      "lat": 10.53304,
      "lng": -67.11691,
      "estado": "no_encontrado",
      "distancia_m": null,
      "osm": null,
      "consulta": null
    },
    {
      "indice": 81,
      "nombre": "La lucha",
      "direccion": "C. interna de La Lucha, Catia La Mar 1162, La Guaira, Venezuela",
      "lat": 10.60342,
      "lng": -67.02007,
      "estado": "no_encontrado",
      "distancia_m": null,
      "osm": null,
      "consulta": null
    },
    {
      "indice": 82,
      "nombre": "Mision vivienda OPP av cariaco oeste",
      "direccion": "J586+63P, Caraballeda 1165, La Guaira, Venezuela",
      "lat": 10.61496,
      "lng": -66.84012,
      "estado": "discrepante",
      "distancia_m": 1086,
      "osm": "Caraballeda, Parroquia Caraballeda, Municipio Vargas, Estado Vargas, 1165, Venezuela",
      "consulta": "Caraballeda 1165, La Guaira, Venezuela"
    },
    {
      "indice": 83,
      "nombre": "Residencia Tamiami",
      "direccion": "Av. Caraballeda, Caraballeda 1165, La Guaira, Venezuela",
      "lat": 10.61239,
      "lng": -66.85274,
      "estado": "discrepante",
      "distancia_m": 640,
      "osm": "Avenida Caraballeda, El Palmar Este, Caraballeda, Parroquia Caraballeda, Municipio Vargas, Estado Vargas, 1165, Venezuela",
      "consulta": "Av. Caraballeda, Caraballeda 1165, La Guaira, Venezuela"
    },
    {
      "indice": 84,
      "nombre": "Hotel Chipi’s beach",
      "direccion": "HOTEL CHIPIS BEACH, Catia La Mar 1162, La Guaira, Venezuela",
      "lat": 10.6083,
      "lng": -67.01063,
      "estado": "no_encontrado",
      "distancia_m": null,
      "osm": null,
      "consulta": null
    },
    {
      "indice": 85,
      "nombre": "Iglesia San Sebastian de Maiquetia",
      "direccion": "C. Real de Maiquetía, Maiquetía 1161, La Guaira, Venezuela",
      "lat": 10.59568,
      "lng": -66.95211,
      "estado": "ok",
      "distancia_m": 151,
      "osm": "Iglesia San Sebastián, Calle Real de Maiquetía, Casco Central de Maiquetía, El Rincón, Maiquetía, Parroquia Maiquetía, Municipio Vargas, Estado Vargas, 1161, Venezuela",
      "consulta": "Iglesia San Sebastian de Maiquetia, C. Real de Maiquetía, Maiquetía 1161, La Guaira, Venezuela"
    },
    {
      "indice": 86,
      "nombre": "Mini CC K-rol",
      "direccion": "Av. La Costanera, Caraballeda, La Guaira, Venezuela",
      "lat": 10.61222,
      "lng": -66.84813,
      "estado": "discrepante",
      "distancia_m": 1242,
      "osm": "Avenida La Costanera, El Palmar Oeste, Caraballeda, Parroquia Caraballeda, Municipio Vargas, Estado Vargas, 1165, Venezuela",
      "consulta": "Av. La Costanera, Caraballeda, La Guaira, Venezuela"
    },
    {
      "indice": 87,
      "nombre": "Edificio Agua Marina",
      "direccion": "Macuto 1164, La Guaira, Venezuela. Al lado del hotel las 15 letras",
      "lat": 10.60724,
      "lng": -66.88486,
      "estado": "no_encontrado",
      "distancia_m": null,
      "osm": null,
      "consulta": null
    },
    {
      "indice": 88,
      "nombre": "Edificio Miramar",
      "direccion": "Caribe, Caraballeda 1165, La Guaira, Venezuela",
      "lat": 10.61288,
      "lng": -66.84663,
      "estado": "discrepante",
      "distancia_m": 845,
      "osm": "Urbanización Caribe, Caraballeda, Parroquia Caraballeda, Municipio Vargas, Estado Vargas, 1165, Venezuela",
      "consulta": "Caribe, Caraballeda 1165, La Guaira, Venezuela"
    },
    {
      "indice": 89,
      "nombre": "Residencias El Molino",
      "direccion": "Avenida Guaicaipuro, Caraballeda 1165, La Guaira, Venezuela",
      "lat": 10.61222,
      "lng": -66.84371,
      "estado": "ok",
      "distancia_m": 147,
      "osm": "Avenida Guaicaipuro, Urbanización Caribe, Caraballeda, Parroquia Caraballeda, Municipio Vargas, Estado Vargas, 1165, Venezuela",
      "consulta": "Avenida Guaicaipuro, Caraballeda 1165, La Guaira, Venezuela"
    },
    {
      "indice": 90,
      "nombre": "Residencias Mar de Leva",
      "direccion": "J49W+HV4, Av. José María España, Caraballeda 1165, La Guaira, Venezuela",
      "lat": 10.61179,
      "lng": -66.85325,
      "estado": "discrepante",
      "distancia_m": 1027,
      "osm": "Avenida La Playa, Los Corales, Caraballeda, Parroquia Caraballeda, Municipio Vargas, Estado Vargas, 1165, Venezuela",
      "consulta": "Av. José María España, Caraballeda 1165, La Guaira, Venezuela"
    },
    {
      "indice": 91,
      "nombre": "Torre F Catia La Mar",
      "direccion": "HXW5+RQ6, Catia La Mar 1162, La Guaira, Venezuela",
      "lat": 10.59705,
      "lng": -67.0406,
      "estado": "discrepante",
      "distancia_m": 2865,
      "osm": "Catia La Mar, Parroquia Urimare, Municipio Vargas, Estado Vargas, 1162, Venezuela",
      "consulta": "Catia La Mar 1162, La Guaira, Venezuela"
    },
    {
      "indice": 92,
      "nombre": "Residencias Arichuna Los Corales",
      "direccion": "J48R+RQP, Caraballeda 1165, La Guaira, Venezuela",
      "lat": 10.61249,
      "lng": -66.85806,
      "estado": "discrepante",
      "distancia_m": 903,
      "osm": "Caraballeda, Parroquia Caraballeda, Municipio Vargas, Estado Vargas, 1165, Venezuela",
      "consulta": "Caraballeda 1165, La Guaira, Venezuela"
    },
    {
      "indice": 93,
      "nombre": "Edificio Residencial Los Corsarios",
      "direccion": "Avenida 1, Maiquetía 1162, La Guaira, Venezuela",
      "lat": 10.61071,
      "lng": -67.00977,
      "estado": "discrepante",
      "distancia_m": 5306,
      "osm": "Carril VAO Avenida Carlos Soublette, Maiquetía, Parroquia Maiquetía, Municipio Vargas, Estado Vargas, 1161, Venezuela",
      "consulta": "Avenida 1, Maiquetía 1162, La Guaira, Venezuela"
    },
    {
      "indice": 94,
      "nombre": "Residencia Los Monjes",
      "direccion": "Calle 3 con Av. Central de Playa Grande, frente al Club Deportivo Ariel, Playa Grande",
      "lat": 10.60874,
      "lng": -67.01492,
      "estado": "no_encontrado",
      "distancia_m": null,
      "osm": null,
      "consulta": null
    },
    {
      "indice": 95,
      "nombre": "Supermercado Roca Azul",
      "direccion": "J592+22W, Boulevard Monteclaro, Caraballeda 1165, La Guaira, Venezuela",
      "lat": 10.61234,
      "lng": -66.84993,
      "estado": "no_encontrado",
      "distancia_m": null,
      "osm": null,
      "consulta": null
    },
    {
      "indice": 96,
      "nombre": "OPP 33",
      "direccion": "Caribe, Caraballeda 1165, opp 33",
      "lat": 10.60971,
      "lng": -66.8417,
      "estado": "no_encontrado",
      "distancia_m": null,
      "osm": null,
      "consulta": null
    },
    {
      "indice": 97,
      "nombre": "Hotel Catimar",
      "direccion": "Urb Puerto Viejo, 2da Calle, Catia La Mar 1162, La Guaira, Venezuela",
      "lat": 10.60931,
      "lng": -67.02828,
      "estado": "no_encontrado",
      "distancia_m": null,
      "osm": null,
      "consulta": null
    },
    {
      "indice": 98,
      "nombre": "Edificio Sayemar",
      "direccion": "J569+P77, Caraballeda 1165, La Guaira, Venezuela",
      "lat": 10.61179,
      "lng": -66.83183,
      "estado": "discrepante",
      "distancia_m": 1971,
      "osm": "Caraballeda, Parroquia Caraballeda, Municipio Vargas, Estado Vargas, 1165, Venezuela",
      "consulta": "Caraballeda 1165, La Guaira, Venezuela"
    },
    {
      "indice": 99,
      "nombre": "Hotel Santuario La Llanada",
      "direccion": "10.60642187610977",
      "lat": 10.60629,
      "lng": -66.87247,
      "estado": "no_encontrado",
      "distancia_m": null,
      "osm": null,
      "consulta": null
    },
    {
      "indice": 100,
      "nombre": "Residencia Elite Beach",
      "direccion": "Caribe, Caraballeda 1165, La Guaira, Venezuela",
      "lat": 10.61294,
      "lng": -66.84408,
      "estado": "discrepante",
      "distancia_m": 566,
      "osm": "Urbanización Caribe, Caraballeda, Parroquia Caraballeda, Municipio Vargas, Estado Vargas, 1165, Venezuela",
      "consulta": "Caribe, Caraballeda 1165, La Guaira, Venezuela"
    },
    {
      "indice": 101,
      "nombre": "Residencias Bucaneros",
      "direccion": "Playa Grande, Maiquetía 1162, La Guaira, Venezuela",
      "lat": 10.61089,
      "lng": -67.01185,
      "estado": "sospechoso",
      "distancia_m": 348,
      "osm": "Playa Club Marina Grande, Calle Real de Playa Verde, Playa Verde, Catia La Mar, Parroquia Urimare, Municipio Vargas, Estado Vargas, 1162, Venezuela",
      "consulta": "Playa Grande, Maiquetía 1162, La Guaira, Venezuela"
    },
    {
      "indice": 102,
      "nombre": "La Guaira",
      "direccion": "La Guaira, 1160, La Guaira, Venezuela",
      "lat": 10.58751,
      "lng": -66.92136,
      "estado": "discrepante",
      "distancia_m": 1655,
      "osm": "La Guaira, Parroquia La Guaira, Municipio Vargas, Estado Vargas, 1160, Venezuela",
      "consulta": "La Guaira, La Guaira, 1160, La Guaira, Venezuela"
    },
    {
      "indice": 103,
      "nombre": "Residencias El Nazareno",
      "direccion": "J456+235, C. Guaicamacuto, Macuto 1164, La Guaira, Venezuela",
      "lat": 10.60752,
      "lng": -66.88975,
      "estado": "no_encontrado",
      "distancia_m": null,
      "osm": null,
      "consulta": null
    },
    {
      "indice": 104,
      "nombre": "Tahiti",
      "direccion": "J592+95G Edificio Tahiti, Boulevard Monteclaro, Caraballeda 1165, La Guaira, Venezuela",
      "lat": 10.61141,
      "lng": -66.84954,
      "estado": "no_encontrado",
      "distancia_m": null,
      "osm": null,
      "consulta": null
    },
    {
      "indice": 105,
      "nombre": "Palafito del mar",
      "direccion": "C. Cariaco, La Guaira 1160, La Guaira, Venezuela",
      "lat": 10.61231,
      "lng": -66.8413,
      "estado": "discrepante",
      "distancia_m": 7814,
      "osm": "Cariaco, Parroquia La Guaira, Municipio Vargas, Estado Vargas, 1160, Venezuela",
      "consulta": "C. Cariaco, La Guaira 1160, La Guaira, Venezuela"
    },
    {
      "indice": 106,
      "nombre": "Residencia la cascada",
      "direccion": "J584+66C, 1165 Av. José María España, Caraballeda 1165, La Guaira, Venezuela",
      "lat": 10.61205,
      "lng": -66.84448,
      "estado": "discrepante",
      "distancia_m": 889,
      "osm": "Avenida La Playa, Los Corales, Caraballeda, Parroquia Caraballeda, Municipio Vargas, Estado Vargas, 1165, Venezuela",
      "consulta": "1165 Av. José María España, Caraballeda 1165, La Guaira, Venezuela"
    },
    {
      "indice": 107,
      "nombre": "El Tanagua",
      "direccion": "Av. José María España, Caraballeda, La Guaira, Venezuela",
      "lat": 10.61185,
      "lng": -66.84378,
      "estado": "discrepante",
      "distancia_m": 1866,
      "osm": "Avenida La Playa, El Palmar Oeste, Caraballeda, Parroquia Caraballeda, Municipio Vargas, Estado Vargas, 1165, Venezuela",
      "consulta": "Av. José María España, Caraballeda, La Guaira, Venezuela"
    },
    {
      "indice": 108,
      "nombre": "Edificio Maratea",
      "direccion": "Av. José María España, Caraballeda, La Guaira, Venezuela",
      "lat": 10.61269,
      "lng": -66.84491,
      "estado": "discrepante",
      "distancia_m": 1725,
      "osm": "Avenida La Playa, El Palmar Oeste, Caraballeda, Parroquia Caraballeda, Municipio Vargas, Estado Vargas, 1165, Venezuela",
      "consulta": "Av. José María España, Caraballeda, La Guaira, Venezuela"
    },
    {
      "indice": 109,
      "nombre": "Edificio Estrella",
      "direccion": "J34X+3VJ, Macuto 1164, La Guaira, Venezuela",
      "lat": 10.60521,
      "lng": -66.90036,
      "estado": "discrepante",
      "distancia_m": 895,
      "osm": "Macuto, Parroquia Macuto, Municipio Vargas, Estado Vargas, 1164, Venezuela",
      "consulta": "Macuto 1164, La Guaira, Venezuela"
    },
    {
      "indice": 110,
      "nombre": "Residencias Puerto Coral",
      "direccion": "J468+F86, Macuto 1164, La Guaira, Venezuela",
      "lat": 10.61116,
      "lng": -66.88423,
      "estado": "ok",
      "distancia_m": 5,
      "osm": "Residencias Puerto Coral, Calle 1, El Teleférico, Macuto, Parroquia Macuto, Municipio Vargas, Estado Vargas, 1164, Venezuela",
      "consulta": "Residencias Puerto Coral, Macuto 1164, La Guaira, Venezuela"
    },
    {
      "indice": 111,
      "nombre": "Residencias Aguamarina",
      "direccion": "J466+FW, La Guaira, Venezuela",
      "lat": 10.61119,
      "lng": -66.88769,
      "estado": "ok",
      "distancia_m": 27,
      "osm": "Residencias Aguamarina, El Cojo, La Guaira, Parroquia Macuto, Municipio Vargas, Estado Vargas, 1164, Venezuela",
      "consulta": "Residencias Aguamarina, La Guaira, Venezuela"
    },
    {
      "indice": 112,
      "nombre": "Res Mariola y maribel",
      "direccion": "El Palmar Este, Caraballeda 1165, La Guaira, Venezuela",
      "lat": 10.60948,
      "lng": -66.8484,
      "estado": "ok",
      "distancia_m": 58,
      "osm": "El Palmar Este, Caraballeda, Parroquia Caraballeda, Municipio Vargas, Estado Vargas, 1165, Venezuela",
      "consulta": "El Palmar Este, Caraballeda 1165, La Guaira, Venezuela"
    },
    {
      "indice": 113,
      "nombre": "Edificio Arcángel",
      "direccion": "Avenida La Playa, Macuto 1164, La Guaira, Venezuela",
      "lat": 10.60455,
      "lng": -66.90211,
      "estado": "ok",
      "distancia_m": 30,
      "osm": "Avenida La Playa, Urbanización Álamo, Macuto, Parroquia Macuto, Municipio Vargas, Estado Vargas, 1164, Venezuela",
      "consulta": "Avenida La Playa, Macuto 1164, La Guaira, Venezuela"
    },
    {
      "indice": 114,
      "nombre": "Edificio La Gabarra",
      "direccion": "Los Corales, Caraballeda 1165, La Guaira, Venezuela",
      "lat": 10.61148,
      "lng": -66.85651,
      "estado": "sospechoso",
      "distancia_m": 226,
      "osm": "Los Corales, Caraballeda, Parroquia Caraballeda, Municipio Vargas, Estado Vargas, 1165, Venezuela",
      "consulta": "Los Corales, Caraballeda 1165, La Guaira, Venezuela"
    },
    {
      "indice": 115,
      "nombre": "Res. Gran Terraza",
      "direccion": "Av. José María España, Caraballeda, La Guaira, Venezuela",
      "lat": 10.61297,
      "lng": -66.84448,
      "estado": "discrepante",
      "distancia_m": 1766,
      "osm": "Avenida La Playa, El Palmar Oeste, Caraballeda, Parroquia Caraballeda, Municipio Vargas, Estado Vargas, 1165, Venezuela",
      "consulta": "Av. José María España, Caraballeda, La Guaira, Venezuela"
    },
    {
      "indice": 116,
      "nombre": "Res. Breña sol",
      "direccion": "Av. José María España, Caraballeda, La Guaira, Venezuela",
      "lat": 10.61175,
      "lng": -66.84491,
      "estado": "discrepante",
      "distancia_m": 1748,
      "osm": "Avenida La Playa, El Palmar Oeste, Caraballeda, Parroquia Caraballeda, Municipio Vargas, Estado Vargas, 1165, Venezuela",
      "consulta": "Av. José María España, Caraballeda, La Guaira, Venezuela"
    },
    {
      "indice": 117,
      "nombre": "Residencias Dorado",
      "direccion": "Calle 4, Maiquetía 1162, La Guaira, Venezuela",
      "lat": 10.60928,
      "lng": -67.01658,
      "estado": "discrepante",
      "distancia_m": 6374,
      "osm": "Maiquetía, Parroquia Maiquetía, Municipio Vargas, Estado Vargas, 1161, Venezuela",
      "consulta": "Calle 4, Maiquetía 1162, La Guaira, Venezuela"
    },
    {
      "indice": 118,
      "nombre": "Centro Comercial IP5",
      "direccion": "J49X+FM8, Av. José María España, Caraballeda 1165, La Guaira, Venezuela",
      "lat": 10.6117,
      "lng": -66.85079,
      "estado": "discrepante",
      "distancia_m": 752,
      "osm": "Centro Comercial IP5, Avenida La Playa, Los Corales, Caraballeda, Parroquia Caraballeda, Municipio Vargas, Estado Vargas, 1165, Venezuela",
      "consulta": "Centro Comercial IP5, Av. José María España, Caraballeda 1165, La Guaira, Venezuela"
    },
    {
      "indice": 119,
      "nombre": "Supermercado Roca Azul",
      "direccion": "Boulevard Monte carlo con Av. Cannes. Urb. Palmar Este. Caraballeda, Edo. La Guaira.",
      "lat": 10.61276,
      "lng": -66.84992,
      "estado": "no_encontrado",
      "distancia_m": null,
      "osm": null,
      "consulta": null
    },
    {
      "indice": 120,
      "nombre": "Edificio Gabarra",
      "direccion": "Los Corales, Caraballeda 1165, La Guaira, Venezuela",
      "lat": 10.61154,
      "lng": -66.85651,
      "estado": "sospechoso",
      "distancia_m": 219,
      "osm": "Los Corales, Caraballeda, Parroquia Caraballeda, Municipio Vargas, Estado Vargas, 1165, Venezuela",
      "consulta": "Los Corales, Caraballeda 1165, La Guaira, Venezuela"
    },
    {
      "indice": 121,
      "nombre": "Edificio Costa Brava",
      "direccion": "J48V+Q5G, Av. La Costanera, Caraballeda 1165, La Guaira, Venezuela",
      "lat": 10.61166,
      "lng": -66.85705,
      "estado": "sospechoso",
      "distancia_m": 455,
      "osm": "Avenida La Costanera, El Palmar Oeste, Caraballeda, Parroquia Caraballeda, Municipio Vargas, Estado Vargas, 1165, Venezuela",
      "consulta": "Av. La Costanera, Caraballeda 1165, La Guaira, Venezuela"
    },
    {
      "indice": 122,
      "nombre": "Recidencias NewPort",
      "direccion": "C. La Playa, La Guaira, Venezuela",
      "lat": 10.61267,
      "lng": -66.82818,
      "estado": "discrepante",
      "distancia_m": 25400,
      "osm": "C. La Playa, Mamo, Terrazas de Alto Picure, Parroquia Catia La Mar, Municipio Vargas, Estado Vargas, 1162, Venezuela",
      "consulta": "C. La Playa, La Guaira, Venezuela"
    },
    {
      "indice": 123,
      "nombre": "Residencias Villa Mar",
      "direccion": "Av. del Hotel, Maiquetía 1162, La Guaira, Venezuela",
      "lat": 10.61018,
      "lng": -67.01657,
      "estado": "no_encontrado",
      "distancia_m": null,
      "osm": null,
      "consulta": null
    },
    {
      "indice": 124,
      "nombre": "Espomar",
      "direccion": "J579+57M, Caraballeda 1165, La Guaira, Venezuela",
      "lat": 10.61245,
      "lng": -66.83182,
      "estado": "ok",
      "distancia_m": 62,
      "osm": "Espomar, Avenida La Playa, Tanaguarena, Caraballeda, Parroquia Caraballeda, Municipio Vargas, Estado Vargas, 1165, Venezuela",
      "consulta": "Espomar, Caraballeda 1165, La Guaira, Venezuela"
    },
    {
      "indice": 125,
      "nombre": "Residencia Acuario",
      "direccion": "Tanaguarena, Caraballeda 1165, La Guaira, Venezuela",
      "lat": 10.61027,
      "lng": -66.82458,
      "estado": "sospechoso",
      "distancia_m": 309,
      "osm": "Tanaguarena, Caraballeda, Parroquia Caraballeda, Municipio Vargas, Estado Vargas, 1165, Venezuela",
      "consulta": "Tanaguarena, Caraballeda 1165, La Guaira, Venezuela"
    },
    {
      "indice": 126,
      "nombre": "Costabella",
      "direccion": "Av. Cannes, Caraballeda 1165, La Guaira, Venezuela",
      "lat": 10.6118,
      "lng": -66.85076,
      "estado": "no_encontrado",
      "distancia_m": null,
      "osm": null,
      "consulta": null
    },
    {
      "indice": 127,
      "nombre": "Edificio Caribe detras de las 15 letras",
      "direccion": "J577+G33, paso 3, Caraballeda 1165, La Guaira, Venezuela",
      "lat": 10.61015,
      "lng": -66.88344,
      "estado": "no_encontrado",
      "distancia_m": null,
      "osm": null,
      "consulta": null
    },
    {
      "indice": 128,
      "nombre": "Conjunto Residencial Montemar II",
      "direccion": "Playa Grande, Maiquetía 1162, La Guaira, Venezuela",
      "lat": 10.61239,
      "lng": -67.02359,
      "estado": "discrepante",
      "distancia_m": 1088,
      "osm": "Playa Club Marina Grande, Calle Real de Playa Verde, Playa Verde, Catia La Mar, Parroquia Urimare, Municipio Vargas, Estado Vargas, 1162, Venezuela",
      "consulta": "Playa Grande, Maiquetía 1162, La Guaira, Venezuela"
    },
    {
      "indice": 129,
      "nombre": "Edificio Laguna Mar",
      "direccion": "Edificio Laguna Mar, Caraballeda Frente al Sheraton",
      "lat": 10.61246,
      "lng": -66.8426,
      "estado": "no_encontrado",
      "distancia_m": null,
      "osm": null,
      "consulta": null
    },
    {
      "indice": 130,
      "nombre": "Auraima",
      "direccion": "Av. Jardín Botánico, Caraballeda 1165, La Guaira, Venezuela",
      "lat": 10.61164,
      "lng": -66.82658,
      "estado": "ok",
      "distancia_m": 20,
      "osm": "Auraima, Av. Jardin Botánico, Tanaguarena, Caraballeda, Parroquia Caraballeda, Municipio Vargas, Estado Vargas, 1165, Venezuela",
      "consulta": "Auraima, Av. Jardín Botánico, Caraballeda 1165, La Guaira, Venezuela"
    },
    {
      "indice": 131,
      "nombre": "Edificio Sayemar",
      "direccion": "Edificio Sayemar. La Guaira",
      "lat": 10.61179,
      "lng": -66.83183,
      "estado": "no_encontrado",
      "distancia_m": null,
      "osm": null,
      "consulta": null
    },
    {
      "indice": 132,
      "nombre": "Edificio Tahiti",
      "direccion": "Edificio Tahiti. Caraballeda",
      "lat": 10.61255,
      "lng": -66.84954,
      "estado": "no_encontrado",
      "distancia_m": null,
      "osm": null,
      "consulta": null
    },
    {
      "indice": 133,
      "nombre": "Residencia Alamar",
      "direccion": "JX5M+QCH, Maiquetía 1162, La Guaira, Venezuela",
      "lat": 10.60944,
      "lng": -67.0164,
      "estado": "discrepante",
      "distancia_m": 2267,
      "osm": "Aeropuerto Internacional de Maiquetía Simón Bolívar, Avenida La Armada, Montesano, El Trébol, Catia La Mar, Parroquia Urimare, Municipio Vargas, Estado Vargas, 1162, Venezuela",
      "consulta": "Maiquetía 1162, La Guaira, Venezuela"
    },
    {
      "indice": 134,
      "nombre": "Casa",
      "direccion": "Cjón. Royal, Maiquetía 1161, La Guaira, Venezuela",
      "lat": 10.59351,
      "lng": -66.95148,
      "estado": "no_encontrado",
      "distancia_m": null,
      "osm": null,
      "consulta": null
    },
    {
      "indice": 135,
      "nombre": "Posada la ciénaga, La Sabana, parroquia Caruao en la Guaira",
      "direccion": "La Sabana, La Guaira, Venezuela",
      "lat": 10.61233,
      "lng": -66.38116,
      "estado": "discrepante",
      "distancia_m": 668,
      "osm": "La Sabana, Parroquia Caruao, Municipio Vargas, Estado Vargas, 1168, Venezuela",
      "consulta": "La Sabana, La Guaira, Venezuela"
    },
    {
      "indice": 136,
      "nombre": "Residencias La Laguna, Torre 3",
      "direccion": "Los Magallanes de Catia, Caracas 1030, Distrito Capital, Venezuela",
      "lat": 10.51227,
      "lng": -66.95741,
      "estado": "discrepante",
      "distancia_m": 563,
      "osm": "Residencias La Laguna, Los Magallanes, Catia, Caracas, Parroquia Sucre, Municipio Libertador, Distrito Metropolitano de Caracas, Distrito Capital, 1030, Venezuela",
      "consulta": "Residencias La Laguna, Torre 3, Los Magallanes de Catia, Caracas 1030, Distrito Capital, Venezuela"
    },
    {
      "indice": 137,
      "nombre": "LidoSol",
      "direccion": "Av. Jose Maria Vargas, esquina con Biarritz (Corapalito)",
      "lat": 10.61213,
      "lng": -66.86321,
      "estado": "no_encontrado",
      "distancia_m": null,
      "osm": null,
      "consulta": null
    },
    {
      "indice": 138,
      "nombre": "Manuelita Saenz",
      "direccion": "H2XP+X6J, C. José María Vargas, Maiquetía 1161, La Guaira, Venezuela",
      "lat": 10.60162,
      "lng": -66.96411,
      "estado": "discrepante",
      "distancia_m": 541,
      "osm": "Calle Real Dos Cerritos, 10 de Marzo, Urbanización José María Vargas, Pariata, Parroquia Carlos Soublette, Municipio Vargas, Estado Vargas, Venezuela",
      "consulta": "C. José María Vargas, Maiquetía 1161, La Guaira, Venezuela"
    },
    {
      "indice": 139,
      "nombre": "Urb. Continente",
      "direccion": "Av. El Cuartel Urdaneta, Caracas 1030, Distrito Capital, Venezuela",
      "lat": 10.50851,
      "lng": -66.95352,
      "estado": "discrepante",
      "distancia_m": 666,
      "osm": "Avenida El Cuartel, Parcelamiento Urdaneta, Propatria, Caracas, Parroquia Sucre, Municipio Libertador, Distrito Metropolitano de Caracas, Distrito Capital, 1100, Venezuela",
      "consulta": "Av. El Cuartel Urdaneta, Caracas 1030, Distrito Capital, Venezuela"
    },
    {
      "indice": 140,
      "nombre": "Edificio Selena",
      "direccion": "C. Real de Los Flores de Catia, Caracas 1030, Distrito Capital, Venezuela",
      "lat": 10.51162,
      "lng": -66.9356,
      "estado": "no_encontrado",
      "distancia_m": null,
      "osm": null,
      "consulta": null
    },
    {
      "indice": 141,
      "nombre": "Edificio Tamarumo",
      "direccion": "C. Las Acacias, Caraballeda 1165, La Guaira, Venezuela",
      "lat": 10.61144,
      "lng": -66.82863,
      "estado": "ok",
      "distancia_m": 112,
      "osm": "Calle Las Acacias, Tanaguarena, Caraballeda, Parroquia Caraballeda, Municipio Vargas, Estado Vargas, 1165, Venezuela",
      "consulta": "C. Las Acacias, Caraballeda 1165, La Guaira, Venezuela"
    },
    {
      "indice": 142,
      "nombre": "Residencia Palmeira",
      "direccion": "J56G+R3R, Caraballeda 1165, La Guaira, Venezuela",
      "lat": 10.61139,
      "lng": -66.82494,
      "estado": "discrepante",
      "distancia_m": 2726,
      "osm": "Caraballeda, Parroquia Caraballeda, Municipio Vargas, Estado Vargas, 1165, Venezuela",
      "consulta": "Caraballeda 1165, La Guaira, Venezuela"
    },
    {
      "indice": 143,
      "nombre": "Anduriña Mar",
      "direccion": "Residencias Anduriña Mar, Caraballeda 1165, La Guaira, Venezuela",
      "lat": 10.61088,
      "lng": -66.82137,
      "estado": "ok",
      "distancia_m": 12,
      "osm": "Residencias Anduriña Mar, Carretera Tanaguarenas - Naiguatá, Tanaguarena, Caraballeda, Parroquia Caraballeda, Municipio Vargas, Estado Vargas, 1165, Venezuela",
      "consulta": "Residencias Anduriña Mar, Caraballeda 1165, La Guaira, Venezuela"
    },
    {
      "indice": 144,
      "nombre": "Espomar",
      "direccion": "Tanaguarena, Caraballeda 1165, La Guaira, Venezuela",
      "lat": 10.61027,
      "lng": -66.82458,
      "estado": "discrepante",
      "distancia_m": 848,
      "osm": "Espomar, Avenida La Playa, Tanaguarena, Caraballeda, Parroquia Caraballeda, Municipio Vargas, Estado Vargas, 1165, Venezuela",
      "consulta": "Espomar, Tanaguarena, Caraballeda 1165, La Guaira, Venezuela"
    },
    {
      "indice": 145,
      "nombre": "Golf Club. Caribe",
      "direccion": "Av. ppal de Caribe con av Guaicaipuro",
      "lat": 10.6116,
      "lng": -66.84244,
      "estado": "no_encontrado",
      "distancia_m": null,
      "osm": null,
      "consulta": null
    },
    {
      "indice": 146,
      "nombre": "Marina grande I",
      "direccion": "Calle Real De Playa Verde, Maiquetía, La Guaira, Venezuela",
      "lat": 10.61155,
      "lng": -67.00711,
      "estado": "no_encontrado",
      "distancia_m": null,
      "osm": null,
      "consulta": null
    },
    {
      "indice": 147,
      "nombre": "Residencias atlantico, Catia, caracas",
      "direccion": "G342+JM9, Av. El Atlántico, Caracas 1030, Distrito Capital, Venezuela",
      "lat": 10.50427,
      "lng": -66.94925,
      "estado": "sospechoso",
      "distancia_m": 297,
      "osm": "Avenida El Atlántico, Urbanización El Atlántico, Barrio La Silsa, 23 de Enero, Caracas, Parroquia 23 de Enero, Municipio Libertador, Distrito Metropolitano de Caracas, Distrito Capital, 1014, Venezuela",
      "consulta": "Av. El Atlántico, Caracas 1030, Distrito Capital, Venezuela"
    },
    {
      "indice": 148,
      "nombre": "Pin High",
      "direccion": "Avenida Guaicamacuto, Caraballeda 1165, La Guaira, Venezuela",
      "lat": 10.61167,
      "lng": -66.84522,
      "estado": "no_encontrado",
      "distancia_m": null,
      "osm": null,
      "consulta": null
    },
    {
      "indice": 149,
      "nombre": "Camuri Mar",
      "direccion": "J7CP+WVJ, Care 1166, La Guaira, Venezuela",
      "lat": 10.613,
      "lng": -66.71286,
      "estado": "discrepante",
      "distancia_m": 2465,
      "osm": "Punta Care, Parroquia Naiguatá, Municipio Vargas, Estado Vargas, 1166, Venezuela",
      "consulta": "Care 1166, La Guaira, Venezuela"
    },
    {
      "indice": 150,
      "nombre": "CONJUNTO RESIDENCIAL LA FUNDACION MENDOZA Res 20 2DA ETAPA",
      "direccion": "Avenida Principal de Altavista, Caracas 1030, Distrito Capital, Venezuela",
      "lat": 10.51844,
      "lng": -66.94185,
      "estado": "ok",
      "distancia_m": 30,
      "osm": "Avenida Principal de Altavista, El Refugio, Alta Vista, Caracas, Parroquia Sucre, Municipio Libertador, Distrito Metropolitano de Caracas, Distrito Capital, 1014, Venezuela",
      "consulta": "Avenida Principal de Altavista, Caracas 1030, Distrito Capital, Venezuela"
    },
    {
      "indice": 151,
      "nombre": "Conjunto Residencial Playamar",
      "direccion": "JX7G+6RX, Maiquetía 1162, Vargas, Venezuela",
      "lat": 10.61275,
      "lng": -67.02187,
      "estado": "discrepante",
      "distancia_m": 2954,
      "osm": "Aeropuerto Internacional de Maiquetía Simón Bolívar, Avenida La Armada, Sotavento II, Santa Eduvigis, Catia La Mar, Parroquia Urimare, Municipio Vargas, Estado Vargas, 1162, Venezuela",
      "consulta": "Maiquetía 1162, Vargas, Venezuela"
    },
    {
      "indice": 152,
      "nombre": "Bleu Marine",
      "direccion": "JX5M+MW8, Maiquetía 1162, La Guaira, Venezuela",
      "lat": 10.61107,
      "lng": -67.0242,
      "estado": "discrepante",
      "distancia_m": 3136,
      "osm": "Aeropuerto Internacional de Maiquetía Simón Bolívar, Avenida La Armada, Montesano, El Trébol, Catia La Mar, Parroquia Urimare, Municipio Vargas, Estado Vargas, 1162, Venezuela",
      "consulta": "Maiquetía 1162, La Guaira, Venezuela"
    },
    {
      "indice": 153,
      "nombre": "Residencias Avila Caribe",
      "direccion": "Urbanizacion Tanaguarenas, Avenida del Club Entre Av Cerro Grande y Bulevard Naiguata, Residencias Avila Caribe, Caraballeda 1165, La Guaira, Venezuela",
      "lat": 10.60936,
      "lng": -66.84953,
      "estado": "no_encontrado",
      "distancia_m": null,
      "osm": null,
      "consulta": null
    },
    {
      "indice": 154,
      "nombre": "Quinta San jose",
      "direccion": "Urbanización Palmar este avenida Acapulco",
      "lat": 10.61146,
      "lng": -66.84998,
      "estado": "no_encontrado",
      "distancia_m": null,
      "osm": null,
      "consulta": null
    },
    {
      "indice": 155,
      "nombre": "Residencias Capri Club XVI",
      "direccion": "Urb Av. La Costanera, Caraballeda 1165, La Guaira, Venezuela",
      "lat": 10.61115,
      "lng": -66.86691,
      "estado": "no_encontrado",
      "distancia_m": null,
      "osm": null,
      "consulta": null
    },
    {
      "indice": 156,
      "nombre": "Residencias Altomar - Alto mar",
      "direccion": "JX5Q+RHP, Maiquetía 1162, La Guaira, Venezuela",
      "lat": 10.60959,
      "lng": -67.01104,
      "estado": "discrepante",
      "distancia_m": 1726,
      "osm": "Aeropuerto Internacional de Maiquetía Simón Bolívar, Avenida La Armada, Montesano, El Trébol, Catia La Mar, Parroquia Urimare, Municipio Vargas, Estado Vargas, 1162, Venezuela",
      "consulta": "Maiquetía 1162, La Guaira, Venezuela"
    },
    {
      "indice": 157,
      "nombre": "Parque del Caribe",
      "direccion": "J468+7FR, Macuto 1164, La Guaira, Venezuela",
      "lat": 10.61082,
      "lng": -66.88384,
      "estado": "ok",
      "distancia_m": 9,
      "osm": "Residencias Parque del Caribe, Calle 1, El Teleférico, Macuto, Parroquia Macuto, Municipio Vargas, Estado Vargas, 1164, Venezuela",
      "consulta": "Parque del Caribe, Macuto 1164, La Guaira, Venezuela"
    },
    {
      "indice": 158,
      "nombre": "Playa Alí Babá",
      "direccion": "Playa Alí Babá, Av. José María España, Caraballeda, La Guaira, Venezuela",
      "lat": 10.61145,
      "lng": -66.86565,
      "estado": "no_encontrado",
      "distancia_m": null,
      "osm": null,
      "consulta": null
    },
    {
      "indice": 159,
      "nombre": "Residencias Altamar",
      "direccion": "J456+H2R, Macuto 1164, La Guaira, Venezuela",
      "lat": 10.60874,
      "lng": -66.89026,
      "estado": "sospechoso",
      "distancia_m": 334,
      "osm": "Macuto, Parroquia Macuto, Municipio Vargas, Estado Vargas, 1164, Venezuela",
      "consulta": "Macuto 1164, La Guaira, Venezuela"
    },
    {
      "indice": 160,
      "nombre": "Remanso II",
      "direccion": "J57G+43F, Caraballeda 1165, La Guaira, Venezuela",
      "lat": 10.61183,
      "lng": -66.82484,
      "estado": "discrepante",
      "distancia_m": 2735,
      "osm": "Caraballeda, Parroquia Caraballeda, Municipio Vargas, Estado Vargas, 1165, Venezuela",
      "consulta": "Caraballeda 1165, La Guaira, Venezuela"
    },
    {
      "indice": 161,
      "nombre": "Edificio Avila Mar",
      "direccion": "Caraballeda, La Guaira, Venezuela",
      "lat": 10.61253,
      "lng": -66.84935,
      "estado": "ok",
      "distancia_m": 61,
      "osm": "Caraballeda, Parroquia Caraballeda, Municipio Vargas, Estado Vargas, 1165, Venezuela",
      "consulta": "Caraballeda, La Guaira, Venezuela"
    },
    {
      "indice": 162,
      "nombre": "Residencias Brisamar",
      "direccion": "Subida Teleferico, Macuto 1164, La Guaira, Venezuela",
      "lat": 10.60957,
      "lng": -66.88163,
      "estado": "no_encontrado",
      "distancia_m": null,
      "osm": null,
      "consulta": null
    },
    {
      "indice": 163,
      "nombre": "Residencias Newport",
      "direccion": "C. Charaima, Caraballeda 1165, La Guaira, Venezuela",
      "lat": 10.61152,
      "lng": -66.82857,
      "estado": "sospechoso",
      "distancia_m": 491,
      "osm": "Calle Charaima, Tanaguarena, Caraballeda, Parroquia Caraballeda, Municipio Vargas, Estado Vargas, 1165, Venezuela",
      "consulta": "C. Charaima, Caraballeda 1165, La Guaira, Venezuela"
    },
    {
      "indice": 164,
      "nombre": "Edificio MIRANDA 20A",
      "direccion": "G383+V7V, Caracas 1030, Distrito Capital, Venezuela",
      "lat": 10.51694,
      "lng": -66.94668,
      "estado": "discrepante",
      "distancia_m": 3710,
      "osm": "Caracas, Parroquia Catedral, Municipio Libertador, Distrito Metropolitano de Caracas, Distrito Capital, Venezuela",
      "consulta": "Caracas 1030, Distrito Capital, Venezuela"
    },
    {
      "indice": 165,
      "nombre": "Residencia Cima Del Mar",
      "direccion": "J45M+72C, Caraballeda 1165, La Guaira, Venezuela",
      "lat": 10.60818,
      "lng": -66.86748,
      "estado": "discrepante",
      "distancia_m": 2001,
      "osm": "Caraballeda, Parroquia Caraballeda, Municipio Vargas, Estado Vargas, 1165, Venezuela",
      "consulta": "Caraballeda 1165, La Guaira, Venezuela"
    },
    {
      "indice": 166,
      "nombre": "Residencias arrecife",
      "direccion": "Av. José María España, Caraballeda, La Guaira, Venezuela",
      "lat": 10.61184,
      "lng": -66.82711,
      "estado": "discrepante",
      "distancia_m": 3665,
      "osm": "Avenida La Playa, El Palmar Oeste, Caraballeda, Parroquia Caraballeda, Municipio Vargas, Estado Vargas, 1165, Venezuela",
      "consulta": "Av. José María España, Caraballeda, La Guaira, Venezuela"
    },
    {
      "indice": 167,
      "nombre": "Las brisas",
      "direccion": "Parque Mar, Avenida17-A, Caraballeda 1165, La Guaira, Venezuela",
      "lat": 10.60803,
      "lng": -66.85673,
      "estado": "no_encontrado",
      "distancia_m": null,
      "osm": null,
      "consulta": null
    },
    {
      "indice": 168,
      "nombre": "Edificio David",
      "direccion": "Av. Miramar, Maiquetía 1161, La Guaira, Venezuela",
      "lat": 10.59797,
      "lng": -66.96251,
      "estado": "sospechoso",
      "distancia_m": 212,
      "osm": "Avenida Miramar, El Rincón, Maiquetía, Parroquia Maiquetía, Municipio Vargas, Estado Vargas, 1161, Venezuela",
      "consulta": "Av. Miramar, Maiquetía 1161, La Guaira, Venezuela"
    },
    {
      "indice": 169,
      "nombre": "Es una casa de ladrillo con color verde y rejas negras pequeñas de 3 pisos",
      "direccion": "C. Perro Seco, Caraballeda 1165, La Guaira, Venezuela",
      "lat": 10.60612,
      "lng": -66.84508,
      "estado": "no_encontrado",
      "distancia_m": null,
      "osm": null,
      "consulta": null
    },
    {
      "indice": 170,
      "nombre": "Resd Mar Azul",
      "direccion": "JX5Q+XFQ, Av. 1, Maiquetía 1162, La Guaira, Venezuela",
      "lat": 10.60996,
      "lng": -67.01125,
      "estado": "discrepante",
      "distancia_m": 5825,
      "osm": "Maiquetía, Parroquia Maiquetía, Municipio Vargas, Estado Vargas, 1161, Venezuela",
      "consulta": "Av. 1, Maiquetía 1162, La Guaira, Venezuela"
    },
    {
      "indice": 171,
      "nombre": "Coral Plaza",
      "direccion": "J46W+CJP, Caraballeda 1165, La Guaira, Venezuela",
      "lat": 10.6111,
      "lng": -66.85342,
      "estado": "sospechoso",
      "distancia_m": 439,
      "osm": "Caraballeda, Parroquia Caraballeda, Municipio Vargas, Estado Vargas, 1165, Venezuela",
      "consulta": "Caraballeda 1165, La Guaira, Venezuela"
    },
    {
      "indice": 172,
      "nombre": "La riviera",
      "direccion": "Playa Grande, Maiquetía 1162, La Guaira, Venezuela",
      "lat": 10.60957,
      "lng": -67.02615,
      "estado": "discrepante",
      "distancia_m": 1427,
      "osm": "Playa Club Marina Grande, Calle Real de Playa Verde, Playa Verde, Catia La Mar, Parroquia Urimare, Municipio Vargas, Estado Vargas, 1162, Venezuela",
      "consulta": "Playa Grande, Maiquetía 1162, La Guaira, Venezuela"
    },
    {
      "indice": 173,
      "nombre": "Celtamar II",
      "direccion": "Ave plaza el parque, la guaira, tanaguarena",
      "lat": 10.61135,
      "lng": -66.83749,
      "estado": "no_encontrado",
      "distancia_m": null,
      "osm": null,
      "consulta": null
    },
    {
      "indice": 174,
      "nombre": "Edificio club de playa",
      "direccion": "Avenida la playa,sector el ceibo,Macuto,edificio club de playa",
      "lat": 10.60885,
      "lng": -66.88982,
      "estado": "no_encontrado",
      "distancia_m": null,
      "osm": null,
      "consulta": null
    },
    {
      "indice": 175,
      "nombre": "Edificio San Pablo",
      "direccion": "Avenida baral esquina cuartel viejo a pineda ezifi",
      "lat": 10.55341,
      "lng": -67.00488,
      "estado": "no_encontrado",
      "distancia_m": null,
      "osm": null,
      "consulta": null
    },
    {
      "indice": 176,
      "nombre": "Edificio Mafrem",
      "direccion": "avenida principal la costanera con calle 4, Los corales Caraballeda",
      "lat": 10.61282,
      "lng": -66.85926,
      "estado": "no_encontrado",
      "distancia_m": null,
      "osm": null,
      "consulta": null
    },
    {
      "indice": 177,
      "nombre": "Edificio 13 (antes casa #13) Calle real de Alta vista entre 1ra y 2da transversal, Catia parroquia Sucre municipio libertador",
      "direccion": "Calle Real de Alta Vista, Caracas 1030, Distrito Capital, Venezuela",
      "lat": 10.52126,
      "lng": -66.94044,
      "estado": "sospechoso",
      "distancia_m": 308,
      "osm": "Calle Real de Altavista, Alta Vista, Caracas, Parroquia Sucre, Municipio Libertador, Distrito Metropolitano de Caracas, Distrito Capital, 1014, Venezuela",
      "consulta": "Calle Real de Alta Vista, Caracas 1030, Distrito Capital, Venezuela"
    },
    {
      "indice": 178,
      "nombre": "Edif. Los 4 Vientos",
      "direccion": "G3F7+2V6, Calle Real de Los Frailes, Caracas 1030, Distrito Capital, Venezuela",
      "lat": 10.52254,
      "lng": -66.93535,
      "estado": "discrepante",
      "distancia_m": 639,
      "osm": "Calle Real de Los Frailes, Cútira, Ruperto Lugo, Caracas, Parroquia Sucre, Municipio Libertador, Distrito Metropolitano de Caracas, Distrito Capital, 1014, Venezuela",
      "consulta": "Calle Real de Los Frailes, Caracas 1030, Distrito Capital, Venezuela"
    },
    {
      "indice": 179,
      "nombre": "Parque Azul",
      "direccion": "J57F+2XF, Av La Playa, Caraballeda 1165, La Guaira, Venezuela",
      "lat": 10.61296,
      "lng": -66.82508,
      "estado": "discrepante",
      "distancia_m": 1627,
      "osm": "Avenida La Playa, Urbanización Caribe, Caraballeda, Parroquia Caraballeda, Municipio Vargas, Estado Vargas, 1165, Venezuela",
      "consulta": "Av La Playa, Caraballeda 1165, La Guaira, Venezuela"
    },
    {
      "indice": 180,
      "nombre": "Torre 2 conjunto residencial La Laguna Catia",
      "direccion": "G28W+F3R, Caracas 1030, Distrito Capital, Venezuela",
      "lat": 10.51608,
      "lng": -66.95333,
      "estado": "discrepante",
      "distancia_m": 4380,
      "osm": "Caracas, Parroquia Catedral, Municipio Libertador, Distrito Metropolitano de Caracas, Distrito Capital, Venezuela",
      "consulta": "Caracas 1030, Distrito Capital, Venezuela"
    },
    {
      "indice": 181,
      "nombre": "Residencias El Mástil",
      "direccion": "Resd. El Mastil, Calle 6, Maiquetía 1162, La Guaira, Venezuela",
      "lat": 10.61118,
      "lng": -67.01863,
      "estado": "no_encontrado",
      "distancia_m": null,
      "osm": null,
      "consulta": null
    },
    {
      "indice": 182,
      "nombre": "Residencia Bergantin",
      "direccion": "Urbanizacion Punta de Brisas, Macuto, La Guaira, Venezuela",
      "lat": 10.61099,
      "lng": -66.88506,
      "estado": "no_encontrado",
      "distancia_m": null,
      "osm": null,
      "consulta": null
    },
    {
      "indice": 183,
      "nombre": "El Timonel",
      "direccion": "Calle 1. C. 2, Catia La Mar 1162, La Guaira, Venezuela",
      "lat": 10.61092,
      "lng": -67.01206,
      "estado": "discrepante",
      "distancia_m": 1651,
      "osm": "Calle Alfareria, Guaracarumbo, Week-End, Catia La Mar, Parroquia Urimare, Municipio Vargas, Estado Vargas, 1162, Venezuela",
      "consulta": "Calle 1. C. 2, Catia La Mar 1162, La Guaira, Venezuela"
    },
    {
      "indice": 184,
      "nombre": "Edificio Los Abuelos",
      "direccion": "Av. Este Dos, Maiquetía 1162, La Guaira, Venezuela",
      "lat": 10.61071,
      "lng": -67.00977,
      "estado": "no_encontrado",
      "distancia_m": null,
      "osm": null,
      "consulta": null
    },
    {
      "indice": 185,
      "nombre": "Aletamar",
      "direccion": "Av. del Hotel, Maiquetía 1162, La Guaira, Venezuela",
      "lat": 10.61016,
      "lng": -67.01746,
      "estado": "no_encontrado",
      "distancia_m": null,
      "osm": null,
      "consulta": null
    },
    {
      "indice": 186,
      "nombre": "Playa Verde",
      "direccion": "Playa Verde, Maiquetía, La Guaira, Venezuela",
      "lat": 10.61022,
      "lng": -66.99433,
      "estado": "discrepante",
      "distancia_m": 947,
      "osm": "Pescadería Playa Verde, Calle Real de Playa Verde, Playa Verde, Catia La Mar, Parroquia Urimare, Municipio Vargas, Estado Vargas, 1162, Venezuela",
      "consulta": "Playa Verde, Playa Verde, Maiquetía, La Guaira, Venezuela"
    },
    {
      "indice": 187,
      "nombre": "Residencias Montemar",
      "direccion": "catia la mar av central de, Maiquetía 1162, La Guaira, Venezuela",
      "lat": 10.61182,
      "lng": -67.02358,
      "estado": "no_encontrado",
      "distancia_m": null,
      "osm": null,
      "consulta": null
    },
    {
      "indice": 188,
      "nombre": "Kozar",
      "direccion": "Calle Colombia No 15 Al Lado De La Clinica Panamericana, Caracas 1030, Distrito Capital, Venezuela",
      "lat": 10.51128,
      "lng": -66.94775,
      "estado": "no_encontrado",
      "distancia_m": null,
      "osm": null,
      "consulta": null
    },
    {
      "indice": 189,
      "nombre": "Oasis Camuri",
      "direccion": "1 Av. Principal de Naiguatá, Naiguatá 1166, La Guaira, Venezuela",
      "lat": 10.61109,
      "lng": -66.71488,
      "estado": "discrepante",
      "distancia_m": 1287,
      "osm": "Avenida Principal de Naiguatá, Camurí Grande, Parroquia Naiguatá, Municipio Vargas, Estado Vargas, 1166, Venezuela",
      "consulta": "1 Av. Principal de Naiguatá, Naiguatá 1166, La Guaira, Venezuela"
    },
    {
      "indice": 190,
      "nombre": "Costa Dorada",
      "direccion": "JX6H+HW7, Calle 9, Maiquetía 1162, La Guaira, Venezuela",
      "lat": 10.61141,
      "lng": -67.0202,
      "estado": "discrepante",
      "distancia_m": 6813,
      "osm": "Maiquetía, Parroquia Maiquetía, Municipio Vargas, Estado Vargas, 1161, Venezuela",
      "consulta": "Calle 9, Maiquetía 1162, La Guaira, Venezuela"
    },
    {
      "indice": 191,
      "nombre": "Caraballeda Country residences Mar.",
      "direccion": "J57C+466, Caraballeda, La Guaira, Venezuela",
      "lat": 10.6114,
      "lng": -66.82948,
      "estado": "discrepante",
      "distancia_m": 2230,
      "osm": "Caraballeda, Parroquia Caraballeda, Municipio Vargas, Estado Vargas, 1165, Venezuela",
      "consulta": "Caraballeda, La Guaira, Venezuela"
    },
    {
      "indice": 192,
      "nombre": "URBANISMO HUGO CHAVEZ",
      "direccion": "Playa Grande, Maiquetía 1162, La Guaira, Venezuela",
      "lat": 10.60877,
      "lng": -67.02545,
      "estado": "discrepante",
      "distancia_m": 1385,
      "osm": "Playa Club Marina Grande, Calle Real de Playa Verde, Playa Verde, Catia La Mar, Parroquia Urimare, Municipio Vargas, Estado Vargas, 1162, Venezuela",
      "consulta": "Playa Grande, Maiquetía 1162, La Guaira, Venezuela"
    },
    {
      "indice": 193,
      "nombre": "Urbanismo Cacique Caribe",
      "direccion": "Urbanización Urimare, Catia La Mar 1162, La Guaira, Venezuela",
      "lat": 10.59475,
      "lng": -67.01385,
      "estado": "discrepante",
      "distancia_m": 954,
      "osm": "Urbanización Martín Vegas, Week-End, Catia La Mar, Parroquia Urimare, Municipio Vargas, Estado Vargas, Venezuela",
      "consulta": "Urbanización Urimare, Catia La Mar 1162, La Guaira, Venezuela"
    },
    {
      "indice": 194,
      "nombre": "Residencia Ocean Caraballeda",
      "direccion": "J587+52G, C. La Playa, Caraballeda 1165, La Guaira, Venezuela",
      "lat": 10.61161,
      "lng": -66.83743,
      "estado": "discrepante",
      "distancia_m": 768,
      "osm": "Avenida La Playa, Tanaguarena, Caraballeda, Parroquia Caraballeda, Municipio Vargas, Estado Vargas, 1165, Venezuela",
      "consulta": "C. La Playa, Caraballeda 1165, La Guaira, Venezuela"
    },
    {
      "indice": 195,
      "nombre": "Edificio 2H",
      "direccion": "FCGQ+83V, Guatire 1221, Miranda, Venezuela",
      "lat": 10.4758722,
      "lng": -66.5623307,
      "estado": "discrepante",
      "distancia_m": 2258,
      "osm": "Parroquia Guatire, Municipio Zamora, Estado Miranda, Venezuela",
      "consulta": "Guatire 1221, Miranda, Venezuela"
    },
    {
      "indice": 196,
      "nombre": "Edificio Cobo",
      "direccion": "F5RC+73M, Caracas 1071, Miranda, Venezuela",
      "lat": 10.4907229,
      "lng": -66.8298186,
      "estado": "discrepante",
      "distancia_m": 2353,
      "osm": "Templo de Caracas, Avenida C, Caurimare, Sector Caurimare, Caracas, Parroquia El Cafetal, Municipio Baruta, Distrito Metropolitano de Caracas, Estado Miranda, 1061, Venezuela",
      "consulta": "Caracas 1071, Miranda, Venezuela"
    },
    {
      "indice": 197,
      "nombre": "Conjunto Residencial Santa Lucia",
      "direccion": "Conjunto Residencial Santa Lucia",
      "lat": 10.3088280663816,
      "lng": -66.6631846307698,
      "estado": "no_encontrado",
      "distancia_m": null,
      "osm": null,
      "consulta": null
    },
    {
      "indice": 198,
      "nombre": "Edificio Residencia La quinta",
      "direccion": "Avenida Los Próceres, Caracas 1011, Distrito Capital, Venezuela",
      "lat": 10.5154134053963,
      "lng": -66.8991668164398,
      "estado": "ok",
      "distancia_m": 182,
      "osm": "Avenida Los Próceres, San Bernardino, Caracas, Parroquia San Bernardino, Municipio Libertador, Distrito Metropolitano de Caracas, Distrito Capital, 1011, Venezuela",
      "consulta": "Avenida Los Próceres, Caracas 1011, Distrito Capital, Venezuela"
    },
    {
      "indice": 199,
      "nombre": "Edificio San Jacinto",
      "direccion": "Av. López Méndez, Caracas 1011, Distrito Capital, Venezuela",
      "lat": 10.5192793406642,
      "lng": -66.9051101159477,
      "estado": "ok",
      "distancia_m": 53,
      "osm": "Avenida López Méndez, San Bernardino, Caracas, Parroquia San Bernardino, Municipio Libertador, Distrito Metropolitano de Caracas, Distrito Capital, 1011, Venezuela",
      "consulta": "Av. López Méndez, Caracas 1011, Distrito Capital, Venezuela"
    },
    {
      "indice": 200,
      "nombre": "Edificio La Floridiana",
      "direccion": "Av. Anauco, Caracas 1011, Distrito Capital, Venezuela",
      "lat": 10.5157247866608,
      "lng": -66.9019765129903,
      "estado": "sospechoso",
      "distancia_m": 422,
      "osm": "Avenida Anauco, San Bernardino, Caracas, Parroquia San Bernardino, Municipio Libertador, Distrito Metropolitano de Caracas, Distrito Capital, 1011, Venezuela",
      "consulta": "Av. Anauco, Caracas 1011, Distrito Capital, Venezuela"
    },
    {
      "indice": 201,
      "nombre": "Salerno",
      "direccion": "C. Páez, Guatire 1221, Miranda, Venezuela",
      "lat": 10.4681827,
      "lng": -66.5409632,
      "estado": "ok",
      "distancia_m": 23,
      "osm": "Calle Páez, El Desvío, Parroquia Guatire, Municipio Zamora, Estado Miranda, 1221, Venezuela",
      "consulta": "C. Páez, Guatire 1221, Miranda, Venezuela"
    },
    {
      "indice": 202,
      "nombre": "Stajak",
      "direccion": "Avenida Este 7, Caracas, Distrito Capital, Venezuela",
      "lat": 10.5095058723101,
      "lng": -66.9036644364371,
      "estado": "sospechoso",
      "distancia_m": 241,
      "osm": "Avenida Este 7, San José, Caracas, Parroquia San José, Municipio Libertador, Distrito Metropolitano de Caracas, Distrito Capital, 1010, Venezuela",
      "consulta": "Avenida Este 7, Caracas, Distrito Capital, Venezuela"
    },
    {
      "indice": 203,
      "nombre": "Castol",
      "direccion": "Av. Panteón, Caracas, Distrito Capital, Venezuela",
      "lat": 10.511771737472,
      "lng": -66.907409756711,
      "estado": "sospechoso",
      "distancia_m": 485,
      "osm": "Avenida Panteón, San Bernardino, Caracas, Parroquia San Bernardino, Municipio Libertador, Distrito Metropolitano de Caracas, Distrito Capital, 1011, Venezuela",
      "consulta": "Av. Panteón, Caracas, Distrito Capital, Venezuela"
    },
    {
      "indice": 204,
      "nombre": "Residencias Montalban",
      "direccion": "Calle 130 & Avenida 105 C, Valencia 2001, Carabobo, Venezuela",
      "lat": 10.2041122570962,
      "lng": -68.0154990331679,
      "estado": "no_encontrado",
      "distancia_m": null,
      "osm": null,
      "consulta": null
    },
    {
      "indice": 205,
      "nombre": "Residencias Darijak 1",
      "direccion": "Residencias Darijak 1, Av. Nte. 13, Caracas 1011, Distrito Capital, Venezuela",
      "lat": 10.5091241,
      "lng": -66.904494,
      "estado": "no_encontrado",
      "distancia_m": null,
      "osm": null,
      "consulta": null
    },
    {
      "indice": 206,
      "nombre": "Edf Fonseca",
      "direccion": "Esquina Reducto a Municipal Av. Baralt, Caracas 1010, Distrito Capital, Venezuela",
      "lat": 10.5021249,
      "lng": -66.9174598,
      "estado": "no_encontrado",
      "distancia_m": null,
      "osm": null,
      "consulta": null
    },
    {
      "indice": 207,
      "nombre": "EDIFICIO SAUMELL PALACE EN EL PARAÍSO",
      "direccion": "Av. José Antonio Páez, Caracas, Distrito Capital, Venezuela",
      "lat": 10.4868295114835,
      "lng": -66.9327447103119,
      "estado": "discrepante",
      "distancia_m": 683,
      "osm": "Avenida José Antonio Páez, Las Quintas, Brisas del Paraíso, El Paraíso, Caracas, Parroquia El Paraíso, Municipio Libertador, Distrito Metropolitano de Caracas, Distrito Capital, 1020, Venezuela",
      "consulta": "Av. José Antonio Páez, Caracas, Distrito Capital, Venezuela"
    },
    {
      "indice": 208,
      "nombre": "Casa no 50-2",
      "direccion": "Esq calero a chimborazo  la candelaria",
      "lat": 10.5076581,
      "lng": -66.9073681,
      "estado": "no_encontrado",
      "distancia_m": null,
      "osm": null,
      "consulta": null
    },
    {
      "indice": 209,
      "nombre": "Edificio Tierra Santa",
      "direccion": "Maiquetía, La Guaira, Venezuela",
      "lat": 10.5957350691263,
      "lng": -66.9516719384267,
      "estado": "discrepante",
      "distancia_m": 4992,
      "osm": "Aeropuerto Internacional de Maiquetía Simón Bolívar, Avenida La Armada, Sotavento II, Santa Eduvigis, Catia La Mar, Parroquia Urimare, Municipio Vargas, Estado Vargas, 1162, Venezuela",
      "consulta": "Maiquetía, La Guaira, Venezuela"
    },
    {
      "indice": 210,
      "nombre": "Residencias Beslu",
      "direccion": "G36V+8V2, Av. Nte. 11, Caracas 1010, Distrito Capital, Venezuela",
      "lat": 10.5106070967773,
      "lng": -66.9055952265241,
      "estado": "ok",
      "distancia_m": 3,
      "osm": "Residencias Beslu, San José, Caracas, Parroquia San José, Municipio Libertador, Distrito Metropolitano de Caracas, Distrito Capital, 1010, Venezuela",
      "consulta": "Residencias Beslu, Av. Nte. 11, Caracas 1010, Distrito Capital, Venezuela"
    },
    {
      "indice": 211,
      "nombre": "Edificio Albatros",
      "direccion": "Avenida Granada, Caraballeda",
      "lat": 10.6122756052994,
      "lng": -66.8414321503465,
      "estado": "ok",
      "distancia_m": 200,
      "osm": "Avenida Granada, Urbanización Caribe, Caraballeda, Parroquia Caraballeda, Municipio Vargas, Estado Vargas, 1165, Venezuela",
      "consulta": "Avenida Granada, Caraballeda"
    },
    {
      "indice": 212,
      "nombre": "Los Alpes",
      "direccion": "Av. La Salle, Caracas, Distrito Capital, Venezuela",
      "lat": 10.5001058461548,
      "lng": -66.8841977043935,
      "estado": "sospechoso",
      "distancia_m": 313,
      "osm": "Avenida La Salle, Barrio Los Manolos, Guaicaipuro, Los Caobos, Caracas, Parroquia El Recreo, Municipio Libertador, Distrito Metropolitano de Caracas, Distrito Capital, 1050, Venezuela",
      "consulta": "Av. La Salle, Caracas, Distrito Capital, Venezuela"
    },
    {
      "indice": 213,
      "nombre": "casa",
      "direccion": "El Nogal, Santa Lucía 1214, Miranda, Venezuela",
      "lat": 10.34464,
      "lng": -66.642586,
      "estado": "sospechoso",
      "distancia_m": 409,
      "osm": "El Nogal, Parroquia Santa Lucía, Municipio Paz Castillo, Estado Miranda, 1214, Venezuela",
      "consulta": "El Nogal, Santa Lucía 1214, Miranda, Venezuela"
    },
    {
      "indice": 214,
      "nombre": "Residencias La Arbolada",
      "direccion": "Avenida principal de Santa María. Mun sucre.",
      "lat": 10.5051879,
      "lng": -66.8389206,
      "estado": "no_encontrado",
      "distancia_m": null,
      "osm": null,
      "consulta": null
    },
    {
      "indice": 215,
      "nombre": "San Rafael",
      "direccion": "C. Caura, Caracas 1041, Distrito Capital, Venezuela",
      "lat": 10.4832661556661,
      "lng": -66.8945736537453,
      "estado": "ok",
      "distancia_m": 2,
      "osm": "Calle Caura, Valle Abajo, Los Rosales, Caracas, Parroquia San Pedro, Municipio Libertador, Distrito Metropolitano de Caracas, Distrito Capital, 1041, Venezuela",
      "consulta": "C. Caura, Caracas 1041, Distrito Capital, Venezuela"
    },
    {
      "indice": 216,
      "nombre": "Araguaney II",
      "direccion": "Socorro a Calero Av. Este 3, Caracas 1010, Distrito Capital, Venezuela",
      "lat": 10.5080268,
      "lng": -66.9080167,
      "estado": "no_encontrado",
      "distancia_m": null,
      "osm": null,
      "consulta": null
    },
    {
      "indice": 217,
      "nombre": "Barro quemado",
      "direccion": "El Prado, San Diego de los Altos 1203, Miranda, Venezuela",
      "lat": 10.3368371794323,
      "lng": -66.9405813495987,
      "estado": "no_encontrado",
      "distancia_m": null,
      "osm": null,
      "consulta": null
    },
    {
      "indice": 218,
      "nombre": "Orinoco",
      "direccion": "Gran Cacique Guaicaipuro Jefe de Jefes, Caracas, Distrito Capital, Venezuela",
      "lat": 10.4937002,
      "lng": -66.8553903,
      "estado": "no_encontrado",
      "distancia_m": null,
      "osm": null,
      "consulta": null
    },
    {
      "indice": 219,
      "nombre": "Sin nombre",
      "direccion": "Via principal el Junquito km 7 casa 37",
      "lat": 10.4893065162249,
      "lng": -66.9841272568208,
      "estado": "no_encontrado",
      "distancia_m": null,
      "osm": null,
      "consulta": null
    },
    {
      "indice": 220,
      "nombre": "Edificio Bancaribe",
      "direccion": "G522+352, Av. San Juan Bosco, Caracas 1060, Miranda, Venezuela",
      "lat": 10.5001429,
      "lng": -66.8496091,
      "estado": "discrepante",
      "distancia_m": 855,
      "osm": "Avenida San Juan Bosco, Sector Altamira, Altamira, Caracas, Municipio Chacao, Distrito Metropolitano de Caracas, Estado Miranda, 1060, Venezuela",
      "consulta": "Av. San Juan Bosco, Caracas 1060, Miranda, Venezuela"
    },
    {
      "indice": 221,
      "nombre": "Residencia San Rafae",
      "direccion": "Av. Nivaldo, Caracas 1050, Distrito Capital, Venezuela",
      "lat": 10.506481008793,
      "lng": -66.8705198104507,
      "estado": "sospechoso",
      "distancia_m": 419,
      "osm": "Avenida Nivaldo, Barrio Chapellín, Chapellín, Caracas, Parroquia El Recreo, Municipio Libertador, Distrito Metropolitano de Caracas, Distrito Capital, 1050, Venezuela",
      "consulta": "Av. Nivaldo, Caracas 1050, Distrito Capital, Venezuela"
    },
    {
      "indice": 222,
      "nombre": "Edificio san Miguel",
      "direccion": "Torre Delta, Avenida Francisco de Miranda, Caracas 1060, Miranda, Venezuela",
      "lat": 10.492265391137,
      "lng": -66.848171902941,
      "estado": "sospechoso",
      "distancia_m": 345,
      "osm": "Banco Del Sur, Avenida Francisco de Miranda, Barrio Bello Campo, Sector Bello Campo, Caracas, Municipio Chacao, Distrito Metropolitano de Caracas, Estado Miranda, 1060, Venezuela",
      "consulta": "Torre Delta, Avenida Francisco de Miranda, Caracas 1060, Miranda, Venezuela"
    },
    {
      "indice": 223,
      "nombre": "Edificio San Judas Tadeo",
      "direccion": "Las Fuentes, Caracas 1020, Distrito Capital, Venezuela",
      "lat": 10.4853083627764,
      "lng": -66.9403292127429,
      "estado": "discrepante",
      "distancia_m": 3022,
      "osm": "Las Toninas, Redoma O'Leary, Barrio Potrerito, Barrio El Guarataro, Caracas, Parroquia San Juan, Municipio Libertador, Distrito Metropolitano de Caracas, Distrito Capital, 1020, Venezuela",
      "consulta": "Las Fuentes, Caracas 1020, Distrito Capital, Venezuela"
    },
    {
      "indice": 224,
      "nombre": "Traki san martin",
      "direccion": "Avenida San Martín, cruce, con C. B, Caracas 1020, Distrito Capital, Venezuela",
      "lat": 10.4926154,
      "lng": -66.9375029,
      "estado": "no_encontrado",
      "distancia_m": null,
      "osm": null,
      "consulta": null
    },
    {
      "indice": 225,
      "nombre": "Edificio el imperial",
      "direccion": "1era avenida, de, con 2da. Trans., Caracas 1060, Miranda, Venezuela",
      "lat": 10.4995615486633,
      "lng": -66.8467690319524,
      "estado": "no_encontrado",
      "distancia_m": null,
      "osm": null,
      "consulta": null
    },
    {
      "indice": 226,
      "nombre": "Edificio Ávila",
      "direccion": "Avenida Fuerzas Armadas, Caracas, Distrito Capital, Venezuela",
      "lat": 10.5107611847805,
      "lng": -66.9079152783237,
      "estado": "ok",
      "distancia_m": 28,
      "osm": "Edificio Ávila, Avenida Fuerzas Armadas, San José, Caracas, Parroquia San José, Municipio Libertador, Distrito Metropolitano de Caracas, Distrito Capital, 1010, Venezuela",
      "consulta": "Edificio Ávila, Avenida Fuerzas Armadas, Caracas, Distrito Capital, Venezuela"
    },
    {
      "indice": 227,
      "nombre": "Casa 32-02",
      "direccion": "Av. Sucre manicomio calle santa Barbara callejón San Antonio casa 32-02",
      "lat": 10.5193975488695,
      "lng": -66.9326831875581,
      "estado": "no_encontrado",
      "distancia_m": null,
      "osm": null,
      "consulta": null
    },
    {
      "indice": 228,
      "nombre": "Casa 119",
      "direccion": "Ubicación GPS: 10.51975, -66.93179",
      "lat": 10.5197490006638,
      "lng": -66.9317866276127,
      "estado": "no_encontrado",
      "distancia_m": null,
      "osm": null,
      "consulta": null
    },
    {
      "indice": 229,
      "nombre": "Residencia Franco Mar",
      "direccion": "Av La Playa, parroquia carballeda, sector tanaguarena, residencia Francomar",
      "lat": 10.6124439625928,
      "lng": -66.8320477182784,
      "estado": "no_encontrado",
      "distancia_m": null,
      "osm": null,
      "consulta": null
    },
    {
      "indice": 230,
      "nombre": "Edificio Cediaz",
      "direccion": "Edificio Cediaz, Caracas 1050, Distrito Capital, Venezuela",
      "lat": 10.4929836,
      "lng": -66.8782725,
      "estado": "no_encontrado",
      "distancia_m": null,
      "osm": null,
      "consulta": null
    },
    {
      "indice": 231,
      "nombre": "Edificio Merex",
      "direccion": "Avenida Fuerzas Armadas, Caracas, Distrito Capital, Venezuela",
      "lat": 10.5013515,
      "lng": -66.9101433,
      "estado": "discrepante",
      "distancia_m": 1118,
      "osm": "Avenida Fuerzas Armadas, Las Flores de Puente Hierro, El León, El Cementerio, Caracas, Parroquia Santa Rosalia, Municipio Libertador, Distrito Metropolitano de Caracas, Distrito Capital, 1014, Venezuela",
      "consulta": "Avenida Fuerzas Armadas, Caracas, Distrito Capital, Venezuela"
    },
    {
      "indice": 232,
      "nombre": "Residencias Gaby",
      "direccion": "Plaza de la soledad, Maracay 2101, Aragua, Venezuela",
      "lat": 10.2588993477748,
      "lng": -67.5932875526934,
      "estado": "no_encontrado",
      "distancia_m": null,
      "osm": null,
      "consulta": null
    },
    {
      "indice": 233,
      "nombre": "Edificio Serenata",
      "direccion": "Centro, Caracas 1012, G34R+Q3G, Av. Urdaneta, Caracas 1010, Distrito Capital, Venezuela",
      "lat": 10.5072278645789,
      "lng": -66.9096661129109,
      "estado": "no_encontrado",
      "distancia_m": null,
      "osm": null,
      "consulta": null
    },
    {
      "indice": 234,
      "nombre": "Edificio San Bosco",
      "direccion": "F5W3+VVF Molina Agencia de ViajesCaracas, Av. Andrés Bello, Caracas 1060, Miranda, Venezuela",
      "lat": 10.4971928,
      "lng": -66.8453127,
      "estado": "ok",
      "distancia_m": 23,
      "osm": "Edificio San Bosco, Avenida Andrés Bello, Los Palos Grandes, Sector Los Palos Grandes, Caracas, Municipio Chacao, Distrito Metropolitano de Caracas, Estado Miranda, 1060, Venezuela",
      "consulta": "Edificio San Bosco, Av. Andrés Bello, Caracas 1060, Miranda, Venezuela"
    },
    {
      "indice": 235,
      "nombre": "Edificio Flor",
      "direccion": "Av. Francisco Javier Yánez, Caracas 1011, Distrito Capital, Venezuela",
      "lat": 10.519456909114,
      "lng": -66.9038458339717,
      "estado": "ok",
      "distancia_m": 144,
      "osm": "Avenida Francisco Javier Yánez, San Bernardino, Caracas, Parroquia San Bernardino, Municipio Libertador, Distrito Metropolitano de Caracas, Distrito Capital, 1011, Venezuela",
      "consulta": "Av. Francisco Javier Yánez, Caracas 1011, Distrito Capital, Venezuela"
    },
    {
      "indice": 236,
      "nombre": "Residencia contigua a Carmelandia Las Minas de Baruta",
      "direccion": "F42Q+G3X, Caracas 1080, Miranda, Venezuela",
      "lat": 10.4513556,
      "lng": -66.8622659,
      "estado": "discrepante",
      "distancia_m": 3478,
      "osm": "Templo de Caracas, Avenida C, Caurimare, Sector Caurimare, Caracas, Parroquia El Cafetal, Municipio Baruta, Distrito Metropolitano de Caracas, Estado Miranda, 1061, Venezuela",
      "consulta": "Caracas 1080, Miranda, Venezuela"
    },
    {
      "indice": 237,
      "nombre": "Residencia Plaza Aventura",
      "direccion": "1 Av. Sta. Eduvigis, Caracas 1071, Miranda, Venezuela",
      "lat": 10.4995504027459,
      "lng": -66.8408420296447,
      "estado": "sospechoso",
      "distancia_m": 273,
      "osm": "Santa Eduvigis, Sector Santa Edivigis, Caracas, Parroquia Leoncio Martínez, Municipio Sucre, Distrito Metropolitano de Caracas, Estado Miranda, 1071, Venezuela",
      "consulta": "1 Av. Sta. Eduvigis, Caracas 1071, Miranda, Venezuela"
    },
    {
      "indice": 238,
      "nombre": "Edificio bautista 25A",
      "direccion": "Ruperto Lugo, Caracas 1030, Distrito Capital, Venezuela",
      "lat": 10.5220734673836,
      "lng": -66.9381727477177,
      "estado": "ok",
      "distancia_m": 153,
      "osm": "Ruperto Lugo, Caracas, Parroquia Sucre, Municipio Libertador, Distrito Metropolitano de Caracas, Distrito Capital, Venezuela",
      "consulta": "Ruperto Lugo, Caracas 1030, Distrito Capital, Venezuela"
    },
    {
      "indice": 239,
      "nombre": "Ruperto lugo",
      "direccion": "3 Transversal, Caracas 1030, Distrito Capital, Venezuela",
      "lat": 10.5230109,
      "lng": -66.9395424,
      "estado": "discrepante",
      "distancia_m": 7509,
      "osm": "3.° Transversal, Urbanización Residencias Guardia Nacional, Los Jardines de El Valle, Caracas, Parroquia El Valle, Municipio Libertador, Distrito Metropolitano de Caracas, Distrito Capital, 1090, Venezuela",
      "consulta": "3 Transversal, Caracas 1030, Distrito Capital, Venezuela"
    },